Event Date,Event Time,Duration,City,State,Country,Lat,Lon,TotalObservers,Summary,NumShips,Shape,NUFORC Note,Explanation,Certainty
3/15/2020,21:30:00,20-30,Burnaby (Canada),BC,Canada,49.2488091,-122.9805104,7,"This evening my husband took our dogs out side in our back yard facing north towards the mountains.   ((""Starlink"" satellites??))",200,Formation,,,
8/15/1968,19:00:00,5 minutes,St. Laurent (Canada),QC,Canada,45.5025757,-73.706127,3,"Dear Mr. Davenport : A couple weeks back, on Jeff Rense’s radio show, you asked people to come forward with their testimonies, even if ",100,Formation,Date in August 1968 is approximate.  PD,,
3/20/2012,20:30:00,2 minutes,Montreal (Canada),QC,Canada,45.5018869,-73.5673919,1,100+ UFOs in a V-shaped formation,100,Other,,,
2/20/2020,06:05:00,11 minutes,Victoria (Canada),BC,Canada,48.4284207,-123.3656444,1,"String of white lights travelling single file uniformly spaced.  ((""Starlink"" satellites??))",100,Light,,,
5/15/2001,18:30:00,10 min.,St. Thomas (Canada),ON,Canada,42.7777214,-81.1826527,5,Aliens prepared to protect themselves from other aliens,91,Oval,Witness indicates that the date of the sighting is approximate.  PD,,
6/30/2001,19:00:00,5 min.,St. Thomas (Canada),ON,Canada,42.7777214,-81.1826527,5,This big ship had 90 smaller ships surrouding it for protection.,91,Formation,Witness indicates that the date of the sighting is approximate.  PD,,
3/15/2020,21:15:00,10-15 minutes,Lake Cowichan (Canada),BC,Canada,48.8258118,-124.054167,2,"Belt of satellite-like stars 100-ish, two moved perpendicular to belt.  Lasted 10-15 mins.  ((Starlink satellites))",90,Sphere,,,
5/24/2015,21:55:00,1 minute,Ancaster (Canada),ON,Canada,43.2177791,-79.9872835,2,Orange fireball going from the the south west to the north east.,90,Fireball,,,
9/30/2022,20:10:00,approx. 10 min.,victoria,BC,Canada,48.4284207,-123.3656444,2,"long line of lights following each other, but not like pics from Space x photos these werte seperate white lights , no solid line !",80,Circle,,,
10/19/2013,20:05:00,15-20 minutes,Riverview (Canada),NB,Canada,46.0612537,-64.8052183,2,Slow-moving red/orange lights.,75,Light,Witness elects to remain totally anonymous; provides no contact information.  PD,,
3/16/2020,09:05:00,5 minutes,Victoria (Canada),BC,Canada,48.4284207,-123.3656444,25,"Flash of light, steady stream of bright lights over Victoria . There were 60-70 crafts. Bright White line  .((Starlink satellites))",70,Light,,,
5/1/2020,21:10:00,one hour +,Oshawa (Canada),ON,Canada,43.8970929,-78.8657912,1,Witnessed 65 + slow star like objects -  first 3 separate directions  ((Starlink satellites?)),65,Light,,,
12/28/2019,18:15:00,10 minutes,Cremona (Canada),AB,Canada,51.5446259,-114.4922309,4,"Unexplained row of 80 or more perfectly spaced lights cross Highway 22/  ((""Starlink"" satellites))",60,Light,,,
8/24/2013,15:30:00,10 minutes,Chateauguay (Canada),QC,Canada,45.3601589,-73.7494033,5,Over 50 bright little white lights were spotted in the East. After 10 minutes they shot in the air and disappeared.,50,Light,,,
6/15/1998,01:00:00,2hrs,Port Perry (Canada),ON,Canada,44.1050454,-78.944148,5,MANY LIGHTS,50,Light,,,
12/28/2019,19:30:00,15 minutes,Saskatoon (Canada),SK,Canada,52.157902,-106.6701577,3,"((""Starlink"" satellites??))",50,Unknown,,,
6/18/1996,21:00:00,5 miutes,Victoria (Canada),BC,Canada,48.4284207,-123.3656444,3,"Hot june night,out watching stars.I noticed what looked like two lights moving like they were at the end of a birds wings(bobbing up an",50,Other,"We wonder if the witnesses have ruled out high-flying migratory birds.  However, migratory birds should be in their traditional nesting areas by June.  PD",,
11/25/2019,05:00:00,20 minutes,Charleston Lake (Canada),ON,Canada,44.5340215,-75.998417,3,"This morning I woke up early and decided to go out to my deck to look up at the sky.((NUFORC Note:  ""Starlink"" satellites?  PD))",50,Light,,,
12/29/2019,18:45:00,10 minutes,Edson (Canada),AB,Canada,53.585422,-116.4337219,3,"Evenly spaced lights in the night sky flying high over head looking like stars.

No sounds kept coming over head from the tree line t",50,Light,,,
8/23/2020,23:00:00,15 minutes,London (Canada),ON,Canada,42.9849233,-81.2452768,3,Large flock of chevron-shaped UFOs appear after comet sighting,50,Chevron,,,
7/8/2022,22:30:00,Hours long,Clarington,ON,Canada,43.9345347,-78.6000336,2,Not starlink,50,Unknown,,,
5/1/2020,21:45:00,45 minutes,London (Canada),ON,Canada,42.9849233,-81.2452768,2,"35-50 moving stars, majority moving NW to SE in a line. 6th sighting in 7 approx. weeks.",50,Sphere,,,
12/8/2010,00:00:00,1 hr,Fredericton (Canada),NB,Canada,45.9635895,-66.6431151,2,((HOAX??))  multiple object sightings,50,Disk,"We have written the source of the report, to inquire whether it was intended as a serious report, or a hoax.  PD",,
12/13/2024,07:00:00,About 30 min,Vancouver,BC,Canada,49.2890842,-123.1224997,2,Many craft flying in erratic patterns and sometimes in slight order. Some seemed to multiply from 1 light. 1 traveled overhead quickly.,50,Circle,,Unexplained,Possible
11/22/2012,21:30:00,~10 minutes,Ingersoll (Canada),ON,Canada,43.0381628,-80.884049,2,Multiple orange lights moving south to north 50+.,50,Circle,,,
1/3/2020,06:42:00,7 minutes,Kamloops (Kamloops),BC,Canada,50.674522,-120.3272674,1,"((""Starlink"" satellites??))",50,Other,,,
8/22/2007,23:00:00,1 hour,Vancouver (Canada),BC,Canada,49.2827291,-123.1207375,1,Counted 50 moving star-ships in skies over Vancouver BC with some in formation and others moving across sky.,50,Formation,,,
3/30/2020,20:00:00,40 minutes,Regina (Canada),SK,Canada,50.4452112,-104.6188944,9,">45-50 plus lights seen in Regina sky some in formation the rest in what seemed like a planned flight plan!  ((""STARlink"" satellites??",45,Light,,,
3/10/2020,19:30:00,15 minutes,Northwestern Ontario (Canada),ON,Canada,47.6275758,-79.7891665,20,"From W to Et  a  row of lights  in the sky , none of them were blinking  all in a straight line.  ((Starlink satellites))",40,Other,,,
5/7/2021,23:00:00,2 minutes,Mattawa (Canada),ON,Canada,46.31748,-78.702193,2,approx 40 starlight formation some traveling in pairs and some single but in a straight line over the town of Mattawa approx at 11pm.,40,Formation,,,
10/3/2012,03:00:00,20 minutes,Fenwick (Canada),NS,Canada,45.0778473,-63.5466822,2,"I noticed that several other star sized lights were moving in the same direction, There was too many to count there was over 40.",40,Circle,,,
5/25/2019,12:30:00,3 minutes,Saint John (Canada),NB,Canada,45.2733153,-66.0633081,1,"On May 25th, at 12:30am , near Sandy Point on the Kennebecasis river. I saw a long line of lights cross the top of the sky, around the",40,Light,,,
4/12/2020,05:00:00,15 minutes,Surrey (Canada),BC,Canada,49.1913466,-122.8490125,2,I noticed at first 3 lights flying above me at slow speed. Then i noticed 8 more behind them.  ((Starlink satellites?)),38,Circle,,,
4/6/2021,21:00:00,8 minutes,Victoria,BC,Canada,48.4284207,-123.3656444,2,Witnessed oval shaped light first appear as a shooting star from due south at 50 degrees above horizon heading north. Object changed di,37,Oval,,,
11/25/2019,05:55:00,3-5 minutes,Victoria (Canada),BC,Canada,48.4284207,-123.3656444,2,"Multiple (few dozen?) ;satellites in-line formation, gliding through sky in same direction.((NUFORC Note:  ""Starlink"" satellites?  PD))",36,Light,,,
3/28/2020,21:00:00,10 minutes,Kinistino (Canada),SK,Canada,52.9518312,-105.0307621,2,Moving string of flying objects.  ((Starlink satellites)),36,Formation,,,
3/18/2020,21:00:00,5 minutes,Cochrane (Canada),ON,Canada,49.0650259,-81.0299298,2,Wwe noticed lights coming from the West travelling SE.  ((Starlink satellites)),35,Formation,,,
2/17/2006,00:00:00,ON GOING,Coquitlam (Canada),BC,Canada,49.2837626,-122.7932065,10,"Flashing red, blue and white ""stars"" at home over Coquitlam, BC",30,Flash,Witness indicates that the date of the event is approximate.  PD,,
7/24/2012,17:30:00,10 minutes,Oakville (Canada),ON,Canada,43.467517,-79.6876659,7,30+ slowly flying fireballs in the sky (second time witness),30,Fireball,,,
3/17/2020,19:00:00,Still happening,Baysville (Canada),ON,Canada,45.1487505,-79.1163707,6,I noticed a fast moving light going across the sky then counted 25 more behind it.  ((Starlink satellites)),30,Light,,,
5/1/2020,22:00:00,2 hours,Dundalk (Canada),ON,Canada,44.167665,-80.393568,5,multiple white lights flying in a slow almost orbiting pattern very high upon the sky,30,Orb,,,
1/1/2020,19:00:00,15 minutes,Calgary (Canada),AB,Canada,51.0447331,-114.0718831,5,"We watched as a row of lights equal distance apart travelled across the sky and disappeared.  ((""Starlink"" satellites??))",30,Light,,,
8/2/2008,22:00:00,5 minutes,Gravenhurst (Canada),ON,Canada,44.919643,-79.3741834,4,"At end of fireworks, 30-40 objects,2 squadrons of 15-20 each, 1 single rear guard, bright orange,haze glow, pear or cone shape",30,Cone,Witness elects to remain totally anonymous;  provides no contact information.  PD,,
5/13/2015,15:00:00,3 minutes,Edmonton (Canada),AB,Canada,53.5460983,-113.4937266,3,"Seen “pods” of about 5-10 In each, small triangle shape that were very bright/white, and there were about five separate “pods” of them.",30,Triangle,,,
11/5/2012,21:00:00,45 minutes,Pickering (Canada),ON,Canada,43.8384117,-79.0867579,3,"At least 30 orange lights travel silently, in a straight line, over the night sky of Pickering, Ontario, Canada",30,Oval,,,
4/18/2020,09:45:00,20 minutes,Regina (Canada),SK,Canada,50.4452112,-104.6188944,3,We seen well over 30-40 lights some super bright some not way to high to be planes flew in strait line.  ((Starlink satellites)),30,Light,,,
4/25/2020,21:39:00,21:40,Cole Harbour (Canada),NS,Canada,44.6726512,-63.4782503,3,Strange Light Formation spotted on back deck.  ((Spacelink satellites?)),30,Formation,,,
12/27/2019,17:50:00,7 minutes,Thunder Bay (Canada),ON,Canada,48.3808951,-89.2476823,2,"Seen around 30 lights, perfectly spaced from one another and in a perfect line heading ENE.  ((""Spacelink satellites??))",30,Sphere,,,
2/23/1999,01:15:00,13 Mins.,Kingston (Canada),ON,Canada,44.231345,-76.4809694,2,Several various sized orbs along with elongated objects. I have film.,30,Orb,,,
2/20/2020,05:05:00,10-15 minutes,Ignace (Canada),ON,Canada,49.415946,-91.658744,2,"A long line of lights flying in single file heading north.  ((""Starlink"" satellites??))",30,Light,,,
6/10/2016,22:30:00,3-5 minutes,Sharron (Canada),ON,Canada,44.1024927,-79.4310052,2,Star like objects moving across the sky.,30,Light,,,
7/29/2023,21:30:00,2 hours,Calgary,AB,Canada,51.0447331,-114.0718831,2,Lights all over night sky moving erratically,30,Light,,Unexplained,Possible
7/2/2005,23:00:00,45 minutes,Windsor (Canada),ON,Canada,42.3149367,-83.0363633,2,"They were lights - no sound;  At first there was 1, then another 1.  then came 7 lights in formation - this first group of 3 sightings",30,Formation,,,
1/29/2020,19:00:00,Still going,Peterborough (Canada),ON,Canada,44.3047061,-78.3199606,2,"A straight line of U F O's heading from west to east in the north sky.  They were evenly spaced.  ((""Starlink"" satellites??))",30,Formation,,,
3/18/2020,21:15:00,10 minutes,Vancouver (Canada),BC,Canada,49.2827291,-123.1207375,2,Similar brightness to satellites over 30 circular lights moving slowly in a singular line from W to SE.   ((Starlink satellites)),30,Circle,,,
12/5/2019,06:30:00,15 minutes,High River (Canada),AB,Canada,50.5767481,-113.8715613,1,Line of Lights in the early morning sky.  ((NUFORC Note:  Possible Starlink satellites.  PD)),30,Unknown,,,
9/18/2020,05:30:00,5+ minutes,Winnipeg (Canada),MB,Canada,49.8954221,-97.1385145,1,Many white dots following in a row.,30,Other,,,
12/8/2019,06:00:00,10 min.,Moncton,NB,Canada,46.0878165,-64.7782313,1,Long stream of lights,30,Light,,,
4/20/2020,22:15:00,15 minutes,Ponton (Canada),MB,Canada,53.7608608,-98.8138763,1,"Line of over 30 flying aircraft lights seen travelling, equal distance and speed, west to east, single file.  ((Starlink satellites))",30,Light,,,
9/12/2003,20:45:00,15 seconds,Regina (Canada),SK,Canada,50.4452112,-104.6188944,1,HBCCUFO CANADIAN REPORT:  Approx 30 or so lights or so all in triangular patterns,30,Light,,,
12/28/2019,18:25:00,2-3 minutes,Calgary (Canada),AB,Canada,51.0447331,-114.0718831,1,"I noticed what appeared to be a satellite traveling/  ((""Starlink"" satellites??))",30,Light,,,
4/16/2020,17:00:00,2 minutes,Castlegar (Canada),BC,Canada,49.3237408,-117.6593341,1,Stepped ouside and saw over 30 lights moving fast in various formations.  ((Starlink satellites)),30,Light,,,
1/31/2020,06:55:00,5 minutes,Blaine Lake (Canada),SK,Canada,52.8297257,-106.8801788,1,"Large straight formation of lights resembling stars moving E. across the sky N. of Saskatoon, more lights merging in/on to W. tail.",30,Formation,,,
5/28/2021,23:13:00,1-2 minutes,Calgary (Canada),AB,Canada,51.0447331,-114.0718831,1,over 30 bright round unidentified craft traveling fast.,30,Circle,,,
4/18/2020,21:30:00,45 minutes,Regina (Canada),SK,Canada,50.4452112,-104.6188944,1,25 to 30 golden balls in sky or shine to them all in a verticle line.  ((Starlink satellites)),30,Circle,,,
9/11/2009,00:00:00,the past fourteen years,Hagersville,ON,Canada,42.9598903,-80.0522861,1,they show up in the sky when i want they move up and down for yes and left and right for no they also live with me and communicate,30,Circle,,,
12/3/2019,06:00:00,1/2 hour,Broadview (Canada),SK,Canada,50.3780625,-102.5790671,4,"Saw in a very long line going east, about 25 objects. They were traveling at almost the same pace.  ((NUFORC Note:  Satellites?  PD))",25,Formation,,,
4/19/2020,18:00:00,10 minutes,Grand Falls (Canada),NB,Canada,47.0479934,-67.7399015,3,25 flying objects became brighter at some point like going out of atmosphere. Lasted 10min and no noise,25,Orb,,,
4/30/2017,22:00:00,2 hours,Engen/Vanderhoof (Canada),BC,Canada,54.0324799,-124.2922694,3,Numerous star-like lights moving in all directions. spanning across the night sky.,25,Light,Source of report indicates that the date of the sighting is approximate.  PD),,
3/18/2020,21:00:00,20 minutes,Timmins (Canada),ON,Canada,48.4758208,-81.3304953,3,Many lights passing over head same direction.  ((Starlink satellites)),25,Light,,,
1/1/2020,17:30:00,4-5 minutes,Kelowna (Canada),BC,Canada,49.8863235,-119.4965917,2,"First 15 were on the same course and spaced very even.  ((""Spacelink"" satellites??)",25,Unknown,,,
1/5/2020,18:30:00,1 minute,Cleveland (Canada),QC,Canada,45.6666669,-72.083333,2,"The lights were coming from over the southern horizon over Richmond, Quebec.  ((""Starlink"" satellites??))",25,Light,,,
4/19/2020,21:00:00,30 minutes,Stratford (Canada),ON,Canada,43.3700007,-80.9822286,2,"Points of light, evenly spaced...about a mile apart.  ((Starlink satellites?))",25,Formation,,,
4/14/1983,05:15:00,5 minutes,Mission (Canada),BC,Canada,49.1329272,-122.3261603,1,"I just read a few reports on formation sightings and one report is almost identical to mine.  ((""Starlink"" satellites??))",25,Formation,,,
12/22/2019,19:25:00,20 minutes,Aylmer (Canada),ON,Canada,42.7729381,-80.9828842,5,A strait line of ufo going from the horizon to the sky when they reached high altitude they disappeared ((Starlink satellites?)),24,Circle,,,
8/19/2022,21:45:00,30 seconds,Montreal,QC,Canada,45.5018869,-73.5673919,1,Saw two rows of light near each other flying at a approx 45 degree angle into the clouds,24,Other,,,
5/12/2012,01:00:00,02:30,Regina (Canada),SK,Canada,50.4452112,-104.6188944,4,"We were out on a grid road, Were were watching orbs sit and then some weird flashes started coming out of them, One red orb fell so we",23,Changing,,,
4/19/2020,21:00:00,15 minutes,Vankleek Hill (Canada),ON,Canada,45.5196512,-74.6522016,3,Sitting in the hottub to look up at 20+ star-like objects (first assumption satellite) flying EQUAL distance ((Starlink satellites?)),23,Light,,,
11/24/2019,05:15:00,3-4 minuites,Grimsby (Canada),ON,Canada,43.1942126,-79.5624195,1,"23 white lights evenly spaced flying in a row flying over Lake Ontario. ((NUFORC Note:  ""Starlink"" satellites?  PD))",23,Light,,,
11/21/2012,19:06:00,2 hours,Vancouver (Canada),BC,Canada,49.2827291,-123.1207375,3,"Small, faint lights that fly above cloud line changing direction and speed.",22,Rectangle,,,
4/7/2020,22:00:00,15 minutes,New Westminster,BC,Canada,49.2057179,-122.910956,1,"Points of Light Travelling Across the sky.  ((""Starlink"" satellites??))",22,Circle,,,
8/16/2019,11:14:00,60 minutes,Calgary (Canada),AB,Canada,51.0447331,-114.0718831,67,"((HOAX))  The UFO flew over our local park and everyone freaked out, i documented everything.  ((anonymous report))",21,Diamond,Witness elects to remain totally anonymous; provides no contact information.  PD,,
4/14/2020,05:00:00,10 minutes,Nanaimo (Canada),BC,Canada,49.1658836,-123.9400647,2,A line of what appeared to be stars travelling from NW to SE above Nanaimo. ((Starlink satellites)),21,Light,,,
10/30/2024,19:26:00,5 minutes,Calgary,AB,Canada,51.1607911,-113.9443657,1,"I was watching a moving object looking like a star, moved straight then zig zaged.",21,Star,,Starlink,Possible
11/7/2012,19:45:00,30 minutes,Newmarket (Canada),ON,Canada,44.059187,-79.461256,8,"Last night as I drove down my street in Newmarket, Ontario,  I saw multiple bright orange/red lights across the sky in the distance.",20,Sphere,Witness elects to remain totally anonymous; provides little contact information.  PD,,
6/17/2012,22:30:00,everynight from june18-23,Mirimichi (Canada),NB,Canada,47.0295709,-65.5059061,8,"Blue,red and bright white lights appearing in the Miramichi, New Brunswick sky for a solid week this june 2012",20,Changing,,,
7/17/2020,23:55:00,3 nights,"Bridge Lake, Lone Butte (Canada)",BC,Canada,51.5232966,-120.7444729,7,"July 17-20, 2020, Lone Butte, BC: (after 11:55 pm)  Myself and 6 friends were staying at a cabin up in Bridge Lake in Lone Butte Canad",20,Circle,,,
4/23/2008,01:00:00,2 HOURS,Montreal (Canada),QC,Canada,45.5018869,-73.5673919,6,20-30 moving lights in Montreal Canada.,20,Other,,,
5/26/2012,23:00:00,20 mins,Burlington (Canada),ON,Canada,43.3255196,-79.7990319,5,Unidentified red lights in the sky,20,Light,,,
1/20/2017,19:00:00,20 minutes,Wakefield (Canada),QC,Canada,45.6411034,-75.9284651,5,20 lights moving west to east disappearing at the same spot.,20,Light,,,
7/13/2013,22:30:00,10 minutes,Ottawa (Canada),ON,Canada,45.4215296,-75.6971931,5,20 Gold lights. Formation over Ottawa.,20,Formation,,,
5/14/2022,21:34:00,5 minutes,Guelph,ON,Canada,43.5448048,-80.2481666,4,Multiple ufo sightings,20,Orb,,Unexplained,Possible
10/20/2022,22:04:00,20 mins each object,Sydney mines,NS,Canada,46.242273,-60.2306134,3,All shapes and sizes of craft,20,Triangle,,,
1/3/2022,18:40:00,,Collingwood (Canada),ON,Canada,44.5007687,-80.2169047,3,Husband and kids tobogganing saw a whole bunch of little lights that looked like stars but they were moving,20,Circle,,,
11/25/2019,03:30:00,Till daylight,Houston,BC,Canada,54.3979972,-126.6482087,2,There was a big bright colored triangle object hovering so wwe went to go look at it closer and thats when we noticed another and another,20,Triangle,,,
9/25/2013,20:20:00,25 minutes,Winsdor (Harrow) (Canada),ON,Canada,42.0091363,-82.9759999,2,"Bright flashing red/white sphere seen by 2 local business owners, just outside Windsor ON",20,Sphere,,,
10/26/2013,22:30:00,30 minutes,Windsor (Canada),ON,Canada,42.3149367,-83.0363633,2,20 medium sized orbs that glided from north to north east. The orbs made no sound.,20,Orb,,,
10/8/2014,22:00:00,10 minutes,South River (Canada),ON,Canada,45.8410378,-79.3795728,2,at least 20 lights in a row.   ((Starlink satellites)),20,Light,,,
8/10/2013,21:30:00,10 minutes,Burlington (Canada),ON,Canada,43.3255196,-79.7990319,2,"We arrived at the lake in our city, specifically Sioux Look Out Park in Burlington, Ontario.  Approximately 20-25 orange oval lights we",20,Light,,,
11/5/2012,21:10:00,15 minutes+,Pickering (Canada),ON,Canada,43.8384117,-79.0867579,2,"Orange light balls over Pickering, Ontario, November 5, 2012.",20,Light,,,
3/26/2020,21:00:00,10 minutes,Oromocto (Canada),NB,Canada,45.8486646,-66.481286,2,"Unidentified “Social Distancing”?!Just saw a succession of about 20 individual lights, appearing N  ((""Starlink"" satellites??))",20,Light,,,
12/29/2019,18:50:00,15 minutes,Cochrane (Canada),AB,Canada,51.1917439,-114.4667528,2,"Fleet of UFO's pass over Cochrane, Ab.  ((""Spacelink"" satellites??))",20,Light,,,
1/17/2020,18:30:00,15 minutes,Hawkesbury (Canada),ON,Canada,45.6071264,-74.604189,2,"Strange string of lights in the sky.  ((""Starlink"" satellites??))",20,Light,,,
10/14/2020,05:55:00,6 minutes,Nanaimo (Canada),BC,Canada,49.1658836,-123.9400647,2,Line of bright lights traveling in a north eastern direction in British Columbia.  ((Starlin satellites?)),20,Formation,,,
9/12/2020,22:00:00,"Unsure, few minutes",Hamilton (Canada),ON,Canada,43.2557206,-79.8711024,2,A series of orange star-like orbs moving in one direction,20,Formation,,,
1/30/2006,00:00:00,8 hours,Bragg Creek (Canada),AB,Canada,50.95174,-114.5692339,2,"At about 2am, A friend and I were awoken in his country home south of Bragg Creek. We heard a low humming noise and clattering against",20,Disk,,,
10/29/2022,22:00:00,Alll night most nighta,Orangeville,ON,Canada,43.9199788,-80.0943113,2,I have hundreds of photos and hdr photos using Astro cam,20,Circle,,,
7/3/2005,22:44:00,15 seconds,Toronto (Canada),ON,Canada,43.653226,-79.3831843,1,2 V formations fly north along dufferin St. in toronto comprised of glowing oval shaped objects,20,Oval,,,
4/28/2020,23:15:00,15 minutes,Courtenay (Canada),BC,Canada,49.6841391,-124.9904493,1,"I watched them go by, they seem to be approximately the same distance apart. In a line. T ((Starlink satellites?))",20,Light,,,
12/13/2024,18:58:00,3 1/2 hours,London,ON,Canada,42.9912233,-81.1988634,1,I saw many large drones & then a giant bright spotlight appeared and hovered over my yard silently for about 40min before leaving.,20,Light,"The audio tracks from these videos have been removed at the witness's request.   In the originals, the witness can be heard desccribing a ""massive"" lit up craft hovering over her house, a spotlight shining down on the house, and a group of smaller drones floating around in the distance.",Drone,Possible
8/14/2020,00:00:00,30 seconds,Merritt (Canada),BC,Canada,50.1113079,-120.7862222,1,3 this am about 15 to20 objects flew from west to east across my house. ((Starlink satellites??)),20,Formation,,,
11/28/2002,06:20:00,1 minute,Pender Island (Canada),BC,Canada,48.7866869,-123.2893996,1,Satellite re-entry?,20,Fireball,Reported to be re-entering space debris.  We are grateful to all of those who submitted reports.  PD,,
7/12/2005,02:30:00,,Winnipeg (Canada),MB,Canada,49.8954221,-97.1385145,1,sitting in a field. when all of a sudden.,20,Disk,Witness elects to remain totally anonymous.  PD,,
1/17/2020,19:00:00,10 minutes,Lansdowne (Canada),ON,Canada,44.4057559,-76.0182619,2,"A straight line of non-blinking single lights.  ((""Starlink"" satellites??))",19,Light,,,
6/26/2013,22:45:00,10 minutes,London (Canada),ON,Canada,42.9849233,-81.2452768,2,Orange spheres (19) moving without sound over old north London (Ontario) seen by 2 people,19,Fireball,,,
1/26/2020,20:17:00,8 minutes,Cochrane (Canada),AB,Canada,51.1917439,-114.4667528,4,"String on various lights on sky flying on straight line and disappearing one by one on the same spot.  ((""Starlink satellites??))",18,Unknown,,,
4/18/2020,21:00:00,11 minutes,Calgary (Canada),AB,Canada,51.0447331,-114.0718831,3,"18 consecutive lights, following a course, some swirling in a circular patterns.  ((Starlink satellites?))",18,Formation,,,
10/4/2020,20:42:00,2 hours,Lachine (Canada),QC,Canada,45.4418914,-73.6925307,2,"1. Looked like a ball of fire with it's circumference flickering slighly.

 2. With in a two hour span i sighted approx. 19 of  the o",18,Fireball,,,
1/13/2007,18:40:00,45 sec,Laval (Canada),QC,Canada,45.6066487,-73.712409,1,"2 UFO ""geese"" formations over Canada",18,Formation,,,
4/10/2020,22:00:00,15 min,Toronto (Canada),ON,Canada,43.653226,-79.3831843,2,Saw multiple (15) lights following eachother on the same trajectory.  ((Starlink satellites)),17,Light,,,
4/30/2003,21:45:00,40 minute event,Terrace (Canada),BC,Canada,54.5181925,-128.603154,2,HBCCUFO CANADIAN REPORT:  17 objects all over the sky,17,Light,"We express our gratitude to Mr. Brian Vike for sharing this report, and many others, with NUFORC.  For Canadian reports, we recommend you visit his website, indicated above.  PD",,
8/4/2013,21:00:00,10 minutes,St. Thomas (Canada),ON,Canada,42.7777214,-81.1826527,20,Orange circles in loose triangle formation,16,Formation,,,
1/24/2003,21:00:00,30 min,Winnipeg (Canada),MB,Canada,49.8954221,-97.1385145,2,"I was on my balcony having a smoke, and happened to look to the North East. Thats when I say 3 objects movine across the sky towards th",16,Unknown,,,
2/25/2020,06:10:00,90 seconds,Calgary,AB,Canada,51.0447331,-114.0718831,1,"16 consecutive lights equidistant from each other.  ((""Spacelink"" satellites??))",16,Unknown,,,
5/8/2004,00:45:00,3 min,Conklin (Canada),AB,Canada,55.631388,-111.083884,1,16 lights,16,Triangle,,,
4/19/2020,04:30:00,5 minutes,Meeting Creek (Canada),AB,Canada,52.680855,-112.7301313,1,12 lights travelling equidistant from one another. Possible large craft sighting.  ((Starlink satellites?)),16,Light,,,
6/2/2013,00:55:00,1-2 minutes,Morden (Canada),MB,Canada,49.1922753,-98.114271,6,"A long line of bright orange lights flying low and fast.

In clusters of two or three. Silent. No noise. All following the first thre",15,Light,,,
3/1/2021,23:35:00,5 minutes,Port Elgin (Canada),ON,Canada,44.4340516,-81.3929413,4,UFO sighting behind my motel.,15,Light,,,
12/5/2014,21:30:00,30 minutes,Dartmouth (Canada),NS,Canada,44.6660885,-63.5675632,4,I went outside to my balcony to have a smoke and I looked up to the sky and saw 15 lights flashing and blinking. Some were hovering and,15,Light,,,
4/27/2020,23:00:00,one hour,Burnaby (Canada),BC,Canada,49.2488091,-122.9805104,3,Several star-like lights travelling across sky with one that sped up to avoid collision into another.  ((Starlink satellites?)),15,Light,,,
10/1/2012,11:20:00,45 minutes,Welland (Canada),ON,Canada,42.9921579,-79.2482555,3,Groups of 2 Orange/yellow balls shot through the sky in a set path and disappeared over and over,15,Fireball,,,
9/3/2002,21:00:00,continuous,Ingersoll (Canada),ON,Canada,43.0381628,-80.884049,2,"Dull to brilliant craft travelling across sky - no trails, no flashing lights, much faster than airplanes.  Never seen anything like it",15,Unknown,We suspect that the sightings are of satellites.  PD,,
7/23/2012,21:42:00,15-20 minute,Loretto (Canada),ON,Canada,44.0479482,-79.8901868,2,White and blue spheres hovering and then darting across the sky.,15,Sphere,,,
12/25/2019,07:00:00,4-5 minutes,Welling (Canada),AB,Canada,49.4787766,-112.7853441,2,"I notice a roll of orange orbs flying at the end of the orange orbs.  ((""Starlink"" satellites??))",15,Orb,,,
10/24/2014,06:55:00,20 seconds,Ottawa (Canada),ON,Canada,45.4215296,-75.6971931,2,Two Rows of flashing Lights in the sky.,15,Light,,,
9/3/2017,23:00:00,5-7 minutes,Delhi (Canada),ON,Canada,42.8526969,-80.4991954,2,15-20 brightly lit objects travelling in formation in the night sky.,15,Light,,,
4/6/2014,23:00:00,20 minutes,Grande Prairie (Canada),AB,Canada,55.170691,-118.7884808,2,Around 15 bright lights moving at a fast speed through out the sky,15,Light,Source of report indicates that the date of the incident is approximate.  PD,,
12/29/2019,19:30:00,5 minutes,Spruce Grove (Canada),AB,Canada,53.5412414,-113.9100733,2,"12 + lights flying in a straight line then dissapeared at the same spot.  ((""Starlink"" satellites??))",15,Light,,,
11/6/2022,17:11:00,,Kingston,ON,Canada,44.231345,-76.4809694,2,Took a picture of a very interesting looking cloud that resembles a tornado in the sky with a line up of unexplained lights above it.,15,Light,,,
4/15/2020,22:00:00,1 hour,Prince George (Canada),BC,Canada,53.9170641,-122.7496693,2,2 main ships in glow followed by 2 sets of formations travelling together in fuzzy white glow,15,Formation,,,
9/2/1998,02:00:00,30 min.,Flamborough (Canada),ON,Canada,43.3334074,-80.0843328,2,Viewed a v-formation of approx. 15 bright white lights in sky on Sept. 2 1998 at 2 a.m.,15,Formation,,,
6/8/2024,01:11:00,Approx.1 minute,McBride,BC,Canada,53.301347,-120.168461,2,A lime green line traveling south west towards north eastish,15,Formation,,Unexplained,Possible
8/3/2015,22:30:00,45 minutes,London (Canada),ON,Canada,42.9849233,-81.2452768,2,3 distinct sets of orange orbs floating slowly on same path across NE sky.,15,Fireball,,,
6/6/2015,21:45:00,30 minutes,Toronto (Canada),ON,Canada,43.653226,-79.3831843,2,"Sorry to have troubled you. After seeing pictures of sky lanterns, I think that must have been what we saw.",15,Fireball,,,
12/9/2019,05:30:00,15mins,Chilliwack,BC,Canada,49.1579401,-121.9514666,2,Multiple lights falling in a direct line.Looking to the southeast. The odd flash as they neared earth.,15,Circle,,,
8/21/2015,22:30:00,"10 minutes, or less",Burlington (Canada),ON,Canada,43.3255196,-79.7990319,2,20 orange ufos in sky.  Always believed finally see for my own eyes.,15,Circle,,,
9/10/2011,21:30:00,10 min,Millbrook (Canada),ON,Canada,44.15055,-78.4488677,2,approximately 20 orange circles heading from west to east & then going up & disappearing,15,Circle,,,
3/26/2022,07:02:00,1 second,Ottawa,ON,Canada,45.3537097,-75.9342673,1,The smart monitor capture a group of 15 bird alike objects flew by my house in a rapid speed.,15,Unknown,,Birds,Probable
2/19/2020,05:30:00,10 minutes,Kamloops (Canada),BC,Canada,50.674522,-120.3272674,1,"They are streaming across the sky slowly, in a line fro south to east and maybe over the city at high altitude. ((Satellites))",15,Diamond,,,
8/31/2013,21:45:00,15 minutess,Campbell River (Canada),BC,Canada,50.0331226,-125.2733354,4,Multiple orange lights,14,Unknown,,,
4/19/2020,21:30:00,5 minutes,Boucherville (Canada),QC,Canada,45.5913698,-73.4364097,2,Sporadic crossing over each other flying. Not in formation at all and moving fast and zigzagging,14,Light,,,
5/1/2020,22:30:00,24 minutes,Hamilton (Canada),ON,Canada,43.2557206,-79.8711024,2,Strange orbs in the sky followed by an enormous boomerang shaped craft.  ((Starlink satellites?)),13,Triangle,,,
10/15/2002,05:45:00,,Comox (Canada),BC,Canada,49.6735133,-124.9282659,2,On the 15 of oct a friend and I where look up at the star  when we say the intention space station we followed it till it fall out of s,13,Formation,Report submitted by student.  PD,,
6/18/2014,19:00:00,30 second,Montreal (Canada),QC,Canada,45.5018869,-73.5673919,2,I saw a chevron shape UFO and few seconds after I saw a group of 7 and 5 round shape object following the main base UFO this is 120 tim,13,Chevron,,,
3/12/1997,21:00:00,2.5hrs,Black River (Canada),ON,Canada,45.0787059,-74.871981,9,"About the time the Phoenix Lights were making news, we witnessed the very same over Lake Ontario.",12,Sphere,,,
3/1/2005,00:00:00,long over 2 houers,Calgary (Canada),AB,Canada,51.0447331,-114.0718831,8,stoped and then spann looking for close life forms i think then stoped and started swooping down,12,Triangle,Witness indicates that date of the event is approximate.  PD,,
10/16/2019,11:00:00,All night,Digby (Canada),NS,Canada,44.6222077,-65.7565781,5,,12,Circle,,,
8/30/1981,17:00:00,?,Parbrow (Canada),NS,Canada,45.0778473,-63.5466822,5,I had 3 sightings in 4 mouthes about 20 years ago.,12,Cigar,,,
8/13/2011,22:15:00,5 minutes,Bradford (Canada),ON,Canada,44.1109858,-79.5794265,4,Orange circles that came from no where made a upside dipper did not move then disappeared.  Then more lights came.,12,Other,Date above has been corrected.  PD,,
12/24/2012,22:00:00,10 minutes,North Bay (Canada),ON,Canada,46.3091152,-79.4608204,4,Several (12-15) red/orange lights moving erraticly upwards to out of sight.,12,Light,,,
9/9/2023,21:32:00,20 minutes,North Richmond Hill,ON,Canada,43.8828401,-79.4402808,4,Numerous unidentified metal red glowing orbs spotted in the north east sky. Emerging from the horizon to be seen moving in diff dir mov,12,Fireball,,Unexplained,Possible
1/9/2025,19:20:00,30 mins,Washago,ON,Canada,44.7444327,-79.3175402,4,"Multiple Flying objects at various altitudes including extremley low and high, Looks like the drone sightings in the USA.",12,Circle,,Drone,Possible
5/12/2004,23:11:00,5 min,Calgary (55km outside) (Canada),AB,Canada,51.0447331,-114.0718831,4,cigar shaped glowed green and then changed to red flown to the east in zig zags approx 12,12,Cigar,,,
4/22/2007,21:45:00,5seconds,Ingersoll (Canada),ON,Canada,43.0381628,-80.884049,3,"5 pentagons glowing white,transparent then 7 glowing white transparent triangles follow.",12,Triangle,Witness elects to remain totally anonymous;  provides no contact information.  PD,,
8/15/1988,20:00:00,3 hours,Kingston (north of) (Canada),ON,Canada,44.231345,-76.4809694,3,"Multi-coloured large UFO seen low on horizon, Ontario, 1988",12,Oval,Witness indicates that date in 1988 is approximate.  We have encouraged the witness to submit a detailed report.  PD,,
10/9/2010,00:00:00,ongoing,Peterborough (Canada),ON,Canada,44.3047061,-78.3199606,3,i can show anyone who wants ufo's on any clear night and i would even pay for your time if you dont see one. serious replys only,12,Other,,,
12/28/2010,22:30:00,20 minutes,Vancouver (Canada),BC,Canada,49.2827291,-123.1207375,3,approx. 12 red spheres following thesame flight path,12,Light,,,
8/14/2010,21:15:00,8 minutes,Caledon (from Brampton) (Canada),ON,Canada,43.7315479,-79.7624177,3,"String of 12 pulsing lights travelling from west and fading out northeast over Caledon, ON",12,Light,,,
5/14/2022,22:35:00,3 minutes,EDMONTON,AB,Canada,53.5460983,-113.4937266,3,Straight line formation distance apart equal about 3 lrg plane sizes long. Diamond bracelet next to moon stretched out,12,Formation,,,
5/9/2008,00:00:00,01:15,Fort McMurray (Canada),AB,Canada,56.7266231,-111.3790095,3,"i dont even know what we saw, but they were fast and traveled in packs",12,Diamond,,,
8/14/2001,22:45:00,15min,Strathroy (Canada),ON,Canada,42.95542,-81.6232333,2,MANY OBJECTS SEEN IN ONTAIRO SKY.,12,Triangle,"We suspect the witness means a date of August 14, 2001.  We have altered the date above.  PD",,
9/12/2003,20:45:00,10 min,Regina (Canada),SK,Canada,50.4452112,-104.6188944,2,approx 30 or so lights or so all in trianguler patterns  with the exeption of 4 or 6 which were moving at high speed by themselves,12,Triangle,Witness elects to remain totally anonymous.  PD,,
8/11/2012,23:30:00,45 minutes,Edmonton,AB,Canada,53.5460983,-113.4937266,2,We saw at least a dozen white spheres darting back and forth and between each other at very high speed for more than 45 minutes,12,Orb,,,
2/24/2020,05:55:00,8 minutes,Barrie (Canada),ON,Canada,44.3893556,-79.6903316,2,"On February 24/ 2020 at 5:50Am I had just got in my hot tub and was looking at the stars.  ((""Starlink"" satellites??))",12,Light,,,
4/18/2020,21:50:00,4 minutes,Edmonton (Canada),AB,Canada,53.5460983,-113.4937266,2,"I saw 2 lights heading against one another, perhaps satellites.  ((Starlink satellites))",12,Light,,,
6/7/2014,15:30:00,3 minutes,Calgary/Regina (2 hrs. east of Calgary)(Canada),SK,Canada,51.0447331,-114.0718831,2,12- 15 Spherical Balls of light flying in formation during daylight over Saskatchewan,12,Light,,,
7/15/1982,21:00:00,1 hour,Kelowna (Canada),BC,Canada,49.8863235,-119.4965917,2,Okanagan Triangular UFO's Fly in Formation,12,Formation,"Date is approximate.  We will invite the witness to have his friend submit a report, as well.  Very interesting report, we believe.  PD",,
8/14/2015,20:10:00,4-5 minutes,Brampton (Canada),ON,Canada,43.7315479,-79.7624177,2,"My wife spotted them first.

What really gave it away was that there were so many Of them in such a small space. 110% they were not",12,Formation,,,
3/5/2019,21:00:00,4 minutes,Surrey/Langley,BC,Canada,49.0730431,-122.5727084,2,On Tuesday evening in Cloverdale BC at approximately 9 PM I walked onto my porch I couldn't believe my eyes there was approx. 12 roundi,12,Fireball,,,
11/7/2015,21:00:00,15 minutes,Bowen Island (Canada),BC,Canada,49.3767653,-123.3701541,2,12 Orange UFO's that looked like fireballs.,12,Fireball,,,
1/17/2005,20:35:00,2-4 min,Calgary (Canada),AB,Canada,51.0447331,-114.0718831,2,12 ufos flew over head,12,Fireball,,,
4/29/2020,22:30:00,15 minutes,Kelowna (Canada),BC,Canada,49.8863235,-119.4965917,2,Space station like object looks like it’s continuously on a loop only seeing one object at a time 10 of them. ((Starlink satellites?)),12,Cone,,,
4/8/2003,23:30:00,1hr,Cranbrook (Canada),BC,Canada,49.5129678,-115.7694002,1,it was hovering and rotating,12,Other,,,
5/27/2019,01:00:00,15-20 seconds,Red Deer (Canada),AB,Canada,52.2690328,-113.8114955,1,"Approx 12 light traveling East , appearance similar to satelites at 1am over Red Deer , Alberta.  ((anonymous source))",12,Light,Witness elects to remain totally anonymous; provides no contact information.  PD,,
11/19/2003,17:30:00,10-12 seconds,Guelph (Canada),ON,Canada,43.5448048,-80.2481666,1,"several crafts flying in a V-shaped formation; Guelph, Ontario",12,Formation,,,
12/28/2014,19:45:00,8 minutes,Kanata (Canada),ON,Canada,45.3088185,-75.8986835,1,More than a dozen round fiery orange objects floating quietly by in the night sky.,12,Fireball,,,
3/29/2003,02:40:00,5 minutes,Cornwall (Canada),ON,Canada,45.0212762,-74.730345,1,"Yeah,contact me at (613) ((number deleted))",12,Circle,"Witness elects to remain totally anonymous, save for telephone number, deleted above.  PD",,
8/15/2004,23:05:00,10 min.,Niagara Falls (Canada),ON,Canada,43.0895577,-79.0849436,8,"9 to 11 unusual reddish/orange lights which were continuosly changing formation.

We are located in Niagara Falls Canada,and these li",11,Light,Witness elects to remain totally anonymous.  PD,,
7/15/2018,17:30:00,45 minutes,Vancouver (Canada),BC,Canada,49.2827291,-123.1207375,6,"11 white star like lights blinking/flashing & non-flashing for 40+ minutes in scattered formation, very very slowly moving.",11,Formation,,,
7/1/2012,23:00:00,20 minutes,Bath (Canada),ON,Canada,44.1840483,-76.771219,3,Orange Lights in the sky,11,Other,,,
7/30/2005,23:40:00,35 secs,Innisfail (Canada),AB,Canada,52.0274086,-113.9501267,2,Two different crafts sighted in the same night by two people,11,Triangle,Witness elects to remain totally anonymous; provides no contact information.  PD,,
1/20/2018,19:30:00,5 minutes,Toronto (Canada),ON,Canada,43.653226,-79.3831843,2,"Orbs of light traveling in a line, equally spaced apart, NE direction; changing from red to white.  We saw approx 11 of them",11,Orb,,,
12/3/2019,07:03:00,4 minutes,Red Deer (Canada),AB,Canada,52.2690328,-113.8114955,2,December 3rd 2019 7:04 a.m. .  ((NUFORC Note:  Starlink satellites?  PD)),11,Light,,,
5/26/2019,01:30:00,5 minutes,Bonnyville (Canada),AB,Canada,54.2679661,-110.7397826,2,Bright lights following one another in a straight line across the sky.  ((NUFORC Note:  String of Space Link satellites.  PD)),11,Light,String of Space Link satellites.  PD,,
10/5/2023,21:00:00,30 seconds,Agassiz,BC,Canada,,,2,Group of golden orbs traveling West to East constantly changing formation,11,Changing,,Unexplained,Possible
6/20/2014,23:00:00,10 minutes,Beeton (Canada),ON,Canada,44.0791616,-79.784315,1,6 and then 5 fireballl like objects appear from the west and slowly floated north.,11,Fireball,,,
4/17/2020,21:45:00,15 minutes,Keswick (Canada),ON,Canada,44.2266889,-79.453512,1,"Friday, april 17th, 2020 at 9:45 pm in Keswick, Ontario.  ((Starlink satellites?))",11,Diamond,,,
11/14/1997,21:00:00,30 seconds,Whistler (Canada),BC,Canada,50.1161686,-122.9535117,100,Lights over Whistler BC,10,Chevron,,,
8/3/2002,17:00:00,1 hour,Toronto (Canada),ON,Canada,43.653226,-79.3831843,8,circles aroud Toronto,10,Circle,,,
5/18/2007,22:50:00,45-hour,London (Canada),ON,Canada,42.9849233,-81.2452768,4,30-40 dim lights flying over London Ont. over hour span,10,Other,,,
4/27/2017,19:30:00,1 minute,West Kelowna (Canada),BC,Canada,49.863612,-119.5644584,3,Several glowing orbs 'dancing' in the sky.,10,Other,,,
7/30/2009,22:20:00,2 hours atleast,Williamslake (Canada),BC,Canada,52.1416736,-122.1416885,3,2 clusters of orbs in british columbia,10,Orb,,,
4/10/2020,21:15:00,10 minutes,Hamilton (Canada),ON,Canada,43.2557206,-79.8711024,3,Convoy traveling across the sky.  ((Starlink satellites)),10,Orb,,,
12/25/2013,20:00:00,10 minutes,Waterdown (Canada),ON,Canada,43.3247102,-79.9030371,3,Fireballs flying in sequence spaced perfecly fr horizon to clouds.,10,Fireball,,,
5/10/2002,22:00:00,one hour,Brampton (Canada),ON,Canada,43.7315479,-79.7624177,2,At least 10 aircraft with very bright lights circling the Brampton area with no set pattern and altitudes.This is the third time we hav,10,Unknown,,,
12/25/2015,00:00:00,5-10 minutes,Port Coquitlam (Canada),BC,Canada,49.2628382,-122.7810708,2,Lights going by orange balls.,10,Sphere,Witness elects to remain totally anonymous; provides no contact information.  PD,,
1/6/2025,23:26:00,1-2 minutes,Embro,ON,Canada,43.1533726,-80.8596756,2,Drone like crafts with four white lights in square with a center red light flashing,10,Rectangle,,Unexplained,Possible
7/23/2000,11:00:00,10 minutes,Toronto (Canada),ON,Canada,43.653226,-79.3831843,2,"we were looking in southeast direction from bathurst and harbourd,ten objects flying in formation (arch shape) some where silver others",10,Oval,,,
9/22/2012,22:30:00,roughly 2-3 mins,Waterdown (Canada),ON,Canada,43.3247102,-79.9030371,2,"Yellow-Orange Orbs, clustered, yet in formation. Almost in parallel sets of 2. Moving quicker than a plane, much brighter than stars",10,Other,,,
12/25/2019,19:45:00,5 minutes,Cypress Hills (Canada),SK,Canada,52.157902,-106.6701577,2,"About 10 spacecraft with lights in each with space in between but in an exact line.  ((""Spacelink"" satellites.))",10,Other,,,
10/13/2012,22:54:00,40 minutes,Vineland (Canada),ON,Canada,43.1513548,-79.3927698,2,Tiny stars.,10,Orb,,,
9/25/2020,21:45:00,15+ minutes,Kitchener (Canada),ON,Canada,43.4516395,-80.4925337,2,Multiple lit orbs.  ((Starlink satellites?)),10,Orb,,,
10/9/2022,23:59:00,not sure,Edmonton,AB,Canada,53.5460983,-113.4937266,2,Please contact,10,Light,,,
6/17/2014,23:30:00,5-10 minutes,Winnipeg (Canada),MB,Canada,49.8954221,-97.1385145,2,Succession of orange lights seen in Winnipeg (Canada).,10,Light,Witness elects to remain totally anonymous; provides no contact information.  PD,,
9/28/2012,23:00:00,20 minutes,Victoria (Canada),BC,Canada,48.4284207,-123.3656444,2,We saw bright lights moving around in the sky going from bright to dull and then disapearing up in the sky.,10,Light,,,
1/13/2025,21:00:00,15 minutes,Sarnia,ON,Canada,42.9446875,-82.3804375,2,"White lights appearing, some staying static others moving horizontal underneath. Dim red lights moving straight vertical.",10,Light,,Unexplained,Possible
2/19/2020,19:00:00,4 minutes,Rossland (Canada),BC,Canada,49.0781415,-117.8000037,2,"I noticed what I thought was a sattlelight in the sky to the west of Orion but it disappeared.  ((""Starlink"" satellites??))",10,Light,,,
5/31/2014,00:05:00,2 hours,Hamilton (Canada),ON,Canada,43.2557206,-79.8711024,2,Pulsing green lights in Lake Ontario.,10,Light,Witness elects to remain totally anonymous; provides little contact information.  PD,,
10/6/2012,19:50:00,40 minutes,Kingston (Canada),ON,Canada,44.231345,-76.4809694,2,"October 6, 2013, three passes of 6-10 bright orange fireballs/lights moving in formation was observed over Kingston Ontario.",10,Fireball,Witness elects to remain totally anonymous; provides no contact information.  PD,,
4/9/2004,21:37:00,Approx: 20 seconds,Not Given (Canada),ON,Canada,56.130366,-106.346771,2,"HBCCUFO CANADIAN REPORT:  Egg shaped (dark orange on inside, light orange/yellow on outside).",10,Egg,,,
5/10/1979,17:00:00,55 seconds,Montreal (Canada),QC,Canada,45.5018869,-73.5673919,2,"TEN BRIGHT SPHERES WERE DESCENDING THROUGH THE CLOUDS, ONCE THEY WERE CLEAR THROUGH MY CAMERA LENS AND I SNAPPED THE PICTURE THEY ASCEN",10,Circle,Witness indicates that date of the incident is approximate.  She provides no other information about the incident.  PD,,
5/1/2016,00:15:00,00:49,Gimli (Canada),MB,Canada,50.6530352,-97.056144,2,Sighted a chevron or checkmark object with dull orange lights and spotted 9 more objects very soon afterward.,10,Chevron,,,
8/27/2022,02:29:00,Approximately 15 to 20 se,South of Sudbury,ON,Canada,46.4917317,-80.993029,1,multiple firework like explosions in orbit or beyond through binoculars,10,Unknown,,,
12/3/2004,01:00:00,20 minutes,Norquay (Canada),SK,Canada,51.882039,-102.0882845,1,They were observing us.,10,Sphere,,,
2/12/2023,10:40:00,5-15 minutes,Toronto,ON,Canada,43.653226,-79.3831843,1,"Large submarine object, all black, size of maybe 2 helicopters, less than a kilometer above ground",10,Oval,,,
8/16/2020,04:12:00,2-3 minutes,Prince George (Canada),BC,Canada,53.9170641,-122.7496693,1,satellite traveling from West to East.  Then I saw another behind it  ((Starlink satellites??)),10,Light,,,
12/30/2016,01:30:00,5 minutes,Toronto (Canada),ON,Canada,43.653226,-79.3831843,1,"At least 10 blinking lights over Toronto, Canada... and 2 stopped in mid air, on a clouded night. ((anonymous report))",10,Light,Witness elects to remain totally anonymous; provides no contact information.  PD,,
8/13/2020,05:23:00,60 seconds,Thunder Bay (Canada),ON,Canada,48.3808951,-89.2476823,1,formation of 10 lights in a straight line moving at a rather fast pace  ((Starlink satellites?)),10,Formation,,,
5/7/2011,21:30:00,30 seconds,Toronto (Canada),ON,Canada,43.653226,-79.3831843,1,"Multiple spherical objects fly in silent formation over Toronto, Ontario Canada.",10,Formation,,,
11/21/2020,21:00:00,10-15 minutes,Fredericton,NB,Canada,45.9635895,-66.6431151,1,Red lights over Fredericton. Changed from Octagon to Zigzag formation over 10-15 minutes.,10,Formation,,,
2/15/2005,00:00:00,5 minutes,"Lloydminster (Alberta, Canada)",AB,Canada,53.2779625,-110.0061451,1,UFO squadron sited in Lloydminster Alberta (possible U.S. military training exercise),10,Disk,"We are not certain whether the sighting occurred on the morning of, or evening of, February 15.  We will attempt to clarify the time with the witness.  PD",,
4/16/2020,05:05:00,5 minutes,Notre-Dame du Nord (Canada),QC,Canada,47.5929631,-79.487499,1,10 to 12 dots in s straight line heading NW.  ((Starlink satellites?)),10,Circle,,,
5/21/2003,23:30:00,35 minutes,Hamilton (Canada),ON,Canada,43.2557206,-79.8711024,1,"Three different sightings of dim, orange lights arranged in various shapes passing soundlessly over my house.",10,Circle,,,
4/19/2020,21:18:00,5 minutes,Markham (Canada),ON,Canada,43.8561002,-79.3370188,1,I was staring up in the sky randomly and there I saw a trail of stars in perfect sequence traveling NE ((Starlink satellites)),10,Circle,,,
8/15/1976,21:00:00,1 hour,Fort Alexander (Canada),MB,Canada,50.610446,-96.298722,50,Gold colored globes,9,Circle,Date is approximate.  We have entered a date for August 1976.  PD,,
5/21/2011,01:27:00,20-40 Minutes,Halifax (Canada),NS,Canada,44.8857087,-63.1005273,7,"The lights flew acrossed the sky faster then any shooting star/meteor shower i have ever seen, moved back and forth acrossed the sky.",9,Triangle,,,
9/27/2012,21:15:00,20 seconds,Grande Prairie (Canada),AB,Canada,55.170691,-118.7884808,4,5 burning red colored spheres moving to east in north sky from grande prairie,9,Sphere,,,
8/20/2011,22:00:00,14 minutes,Sarnia (Canada),ON,Canada,42.974536,-82.4065901,4,"Aug 20, 2011 22:00 hrs. 9 bright orange lights moving N over MI.  ((NUFORC Note:  Report from person familiar with investigation.  PD))",9,Light,"We spoke via telephone with this witness, and he sounded to us to be quite sober-minded and credible.  He has considerable experience with investigation.  PD",,
7/20/2015,01:55:00,30 minutes,Two Hills,AB,Canada,53.7103441,-111.7461105,4,"Me my sister and her two friends were having a campfire I am age 20 they are are 14-15, I was supervising them when I seen the first li",9,Light,,,
3/16/2020,19:30:00,18 minutes,Vernon (Canada),BC,Canada,50.2670137,-119.2720107,3,"I looked up in the sky around 730pm and noticed a fast light heading east. I saw another heading the same direction 2 seconds after, my",9,Light,,,
2/16/2020,19:00:00,20 minutes,Vernon,BC,Canada,50.2670137,-119.2720107,3,"A group of 9 moving stars heading east that were popping into the sky one after another.  ((""Starlink"" satellites??))",9,Light,,,
10/13/2017,20:50:00,30 seconds,Moose Jaw (Canada),SK,Canada,50.3915811,-105.5348562,3,"My wife, daughter, and I were staring at the stars, and witnessed a series of red lights fly quickly across the sky from the NNE to the",9,Formation,,,
7/22/1999,02:50:00,15 seconds,Hamilton (Canada),ON,Canada,43.2557206,-79.8711024,3,"9 ""V"" shaped objects flew over us. Thay wern't Birds but flew in the same formation as geese.",9,Formation,,,
8/9/2013,22:00:00,10 minutes,Acton (Canada),ON,Canada,43.6339088,-80.041322,3,Eight lights travelled at seemingly exactly the same distance apart without sound,9,Fireball,Witness indicates that the date of the sighting is approximate.  PD,,
9/21/2013,20:45:00,half an hour,Winnipeg (Canada),MB,Canada,49.8954221,-97.1385145,3,Fireballs moved steady and silently from east to west.,9,Fireball,,,
9/25/2012,20:30:00,5 minutes,Edmonton (Canada),AB,Canada,53.5460983,-113.4937266,3,9 UFO in Edmonton Alberta seen by 3+me From a mechanical engineering student,9,Fireball,Witness indicates that the date is approximate.  PD,,
10/6/2011,23:30:00,20 minutes,Montreal (Canada),QC,Canada,45.5018869,-73.5673919,2,"Report of incident 9 to 10 spheres were dancing above a low cloud cover zooming  in and out in odd patterns; some slowly , some quickly",9,Other,,,
7/24/2004,23:07:00,45 minutes,Sanikiluaq (Canada),NT,Canada,56.5407678,-79.22321,2,"UFO lights time:23:07 Sanikiluaq, Nunavut Canada duration of sighting 45 minutes, lights(bright white,red,blue)",9,Light,,,
5/5/2013,22:00:00,1/2 hour,Aylmer Gatineau (Canada),QC,Canada,45.3945087,-75.8439603,2,Orange flying unidentified objects in sky.,9,Light,,,
3/31/2020,20:10:00,3 minutes,Shawinigan (Canada),QC,Canada,46.5618559,-72.7435254,2,"Fixed light flying objects not recognized as commercial, military, helicopters, satellite or drone flights.  ((Starlink satellites))",9,Light,,,
4/9/2011,22:28:00,3 minutes,Burlington (Canada),ON,Canada,43.3255196,-79.7990319,2,"Formation of lights moving across the night sky, burlington, ont,can.",9,Formation,,,
8/6/2011,21:45:00,15 minutes,Guelph (Canada),ON,Canada,43.5448048,-80.2481666,2,"Witnessed 9 bright orange objects, flying in exact formation with 3 flying v formation at front of each group of 3.",9,Circle,Witness elects to remain totally anonymous; provides no contact information.  PD,,
10/15/2007,19:15:00,,Peterborough (Canada),ON,Canada,44.3047061,-78.3199606,1,Suddenly my MP3 player stoped and I heard 4 loud bangs!  500 Lights On Object0: Yes,9,Unknown,,,
8/31/2024,22:41:00,7 seconds,Burlington,ON,Canada,43.3690445,-79.830287,1,I saw 9 craft that appeared as dots in a delta formation. One leader and four on either side in a delta formation,9,Triangle,,Unexplained,Possible
3/3/2001,04:34:00,8 min,Waterdown (Canada),ON,Canada,43.3247102,-79.9030371,1,"I saw 6-8 huge incredibly bright lights over a house, with a cluster of smaller colourful lights next to it, which suddenly disappeared",9,Light,,,
9/10/1999,22:40:00,23:05,Toronto (Canada),ON,Canada,43.653226,-79.3831843,1,peter on fri. sept 10 at exactly 9:50pm while outside looking to the south i observed what appeared to be a formation of spot lights ru,9,Light,,,
8/29/2003,13:15:00,3-4 minutes,Scarborough (Canada),ON,Canada,43.7764258,-79.2317521,1,9 --11 rusty red bands of light materialize and then dematerialize in stages above work roof,9,Light,,,
4/12/2007,22:47:00,<2 seconds,Calgary (Canada),AB,Canada,51.0447331,-114.0718831,1,small object from SW to N. 30-35 degress above the horizon - dispersed into 9 -12 egg-shaped low luminous objects (<2seconds),9,Egg,,,
10/15/2000,12:35:00,45 sec.,Sherwood Park (Canada),AB,Canada,53.5412755,-113.2957634,1,I was talking to my wife on a cell phone from a work site just North of Sherwood Park Alberta. Mid-way through the conversation I notic,9,Egg,Date is approximate.  PD,,
7/21/2009,04:00:00,10 Min,Vancouver (Canada),BC,Canada,49.2827291,-123.1207375,1,large bright object about 5 times thhe size of other stars in the sky. only through binoculars the 8 dull objects are noticed tailing.,9,Circle,Witness elects to remain totally anonymous; provides no contact information.  PD,,
8/18/2012,21:00:00,2 minutes,Hamilton (Canada),ON,Canada,43.2557206,-79.8711024,15,Orange orbs in the sky for minutes then planes,8,Orb,Witness indicates that the date of the sighting is approximate.  PD,,
7/14/2010,23:18:00,1 hr,Regina (Canada),SK,Canada,50.4452112,-104.6188944,6,"8 objects high up in the sky that flash white, red, and green lights",8,Flash,,,
5/9/2015,21:40:00,10 minutes,Toronto (Canada),ON,Canada,43.653226,-79.3831843,6,8 bright orange circles in Toronto & a chinese lantern landed unlit...really no mistake.,8,Circle,,,
8/16/2010,00:25:00,quarter to ten to now,Seaforth (Canada),ON,Canada,43.5534346,-81.3934049,5,"Ufo sighted due far west..  ((NUFORC Note:  We suspect a sighting of Jupiter in the eastern sky, but witness does not indic. dir. PD))",8,Other,"We suspect a sighting of Jupiter in the eastern sky, but witness does not indicate direction he is looking.  PD",,
12/15/2024,23:35:00,10sec then flew instantly,London,ON,Canada,42.9301543,-81.2436201,5,It looks a lot like those drones In New Jersey right now,8,Orb,,Drone,Possible
5/21/2022,22:00:00,Noticed them for 10 min,Thunder Bay,ON,Canada,48.3808951,-89.2476823,5,Multiple objects moving independently danced across the sky and flickered out one by one in the exact same spot.,8,Fireball,,,
5/29/2004,22:10:00,20 minutes,Brossard (Canada),QC,Canada,45.4514357,-73.4619103,4,"Bright lights rotating around each other with colors of red, green, blue, and white. ((Advertising lights??))",8,Formation,"We cannot help but wonder whether the lights might have been part of an advertising exhibition, although we have never heard of an advertising light display with lights of different colors.  Just a guess.  PD",,
8/14/1988,23:00:00,5 hours,Ottawa (west of) (Canada),ON,Canada,45.4034944,-75.7456607,3,"Procession of very large, multi-coloured craft.",8,Sphere,Witness indicates that the date of the sighting is approximate.  PD,,
2/15/1998,19:00:00,2-3 seconds,Kelowna (Canada),BC,Canada,49.8863235,-119.4965917,3,"They made no sound and were moving very fast, it seemed like they were chasing each other or playing a game...",8,Light,Date is approximate.  PD,,
9/16/2012,21:00:00,10 minutes,Windsor (Canada),ON,Canada,42.3149367,-83.0363633,3,"Fireballs over Windsor, Ontario.",8,Fireball,,,
7/13/2002,01:30:00,02:10,Vancouver (Canada),BC,Canada,49.2827291,-123.1207375,3,"8-15 fireballs seen moving at different speeds, mostly landing (probably) in water, one exploded",8,Fireball,,,
2/5/2004,06:45:00,,St-Hilaire (Canada),QC,Canada,45.5640416,-73.1790126,3,"UFO Sighting in  St-Hilaire, Québec",8,Disk,,,
1/7/2020,22:15:00,15 minutes,Toronto (Canada),ON,Canada,43.653226,-79.3831843,3,"Multiple star like entities/ craft clustered together. Then dispersed and some would cluster again, but many could still be seen in and",8,Diamond,,,
12/30/2022,23:00:00,30 min,,SK,Canada,53.3853226,-106.8955255,3,Unexplained hovering lights,8,Circle,,Unexplained,Possible
11/28/2000,09:00:00,3 min,Oakville (Canada),ON,Canada,43.467517,-79.6876659,3,"They were brown,large eyes, high picthed sound, we blacked out and had skin taken from us.",8,Chevron,,,
8/31/2011,21:20:00,15 minutes,Port Elgin (Canada),ON,Canada,44.4340516,-81.3929413,2,Eight bright orange elliptical objects with windows over port Elgin Ontario at 21:20 on 31 august 2011.,8,Oval,,,
11/10/2013,20:00:00,20 minutes,New Westminster (Canada),BC,Canada,49.2057179,-122.910956,2,Lights over New Westminster.,8,Oval,,,
10/12/2007,19:00:00,an going,Monton (Canada),NB,Canada,46.0878165,-64.7782313,2,8 circling lights seen in Moncton N.B.,8,Oval,,,
9/10/2016,22:00:00,4-5 minutes,Selkirk (north of)(Canada),MB,Canada,49.6222814,-100.259603,2,8-10 red orbs crossing the sky,8,Orb,,,
10/14/2013,19:30:00,15-20 minutes,Toronto (Canada),ON,Canada,43.653226,-79.3831843,2,8 Red Orb Lights over large City of Toronto.,8,Orb,,,
4/19/2020,21:20:00,10 minutes,Mississauga (Canada),ON,Canada,43.5890452,-79.6441198,2,"12 bright oblects in very high altitude, darting around in formation.  Not a satelite.  ((Starlink satellites?))",8,Light,,,
11/2/2005,16:10:00,45sec to 1min.,Winnipeg (Canada),MB,Canada,49.8954221,-97.1385145,2,"Observerd around ten, bright, rapidlly moving objects in a late afternoon sky.",8,Light,,,
5/5/2011,21:15:00,2 min,Whitby (Canada),ON,Canada,43.8975446,-78.9429329,2,not alone,8,Formation,"Witness elects to remain totally anonymous; provides no contact information.  ISS not visible from Whitby, on the date indicated, so the ISS could not have been the cause of the sighting.  PD",,
12/5/2020,18:45:00,3- 5 minutes,Beaconsfield,QC,Canada,45.4309308,-73.8682835,2,8 lights in formation moving synchronously.,8,Formation,,,
6/16/2017,10:28:00,6 minutes,Calgary (Canada),AB,Canada,51.0447331,-114.0718831,2,"Craft moving in formation over SW Calgary, then performing aerial stunts",8,Formation,,,
8/23/2014,22:00:00,5-8 minutes,Ottawa (Canada),ON,Canada,45.4215296,-75.6971931,2,10 pm Saturday August 23rd Ottawa Canada 8 fireballs in a formation in eastern direction. Lasted about 5 to 8 minuets.,8,Fireball,,,
6/26/2001,14:45:00,35sec.,Ottawa (Canada),ON,Canada,45.4215296,-75.6971931,2,The object appeared to change shape as if made of plazma and was very fast,8,Changing,,,
2/8/2016,23:00:00,5 minutes,Maple Ridge (Canada),BC,Canada,49.2193226,-122.598398,1,Sitting on my deck between 11:55 pm and until 12:00am approximately. First saw 4 orange lights low moving together at plane speed or fa,8,Unknown,,,
9/29/2017,20:00:00,4 minutes,Winkler (Canada),MB,Canada,49.1802197,-97.9391173,1,"Approximately 8 orange orbs were traveling from Winkler towards Roland.  They were traveling in pairs, and not going very fast.",8,Oval,,,
4/18/2020,22:00:00,15 minutes,Bracebridge (Canada),ON,Canada,45.0389565,-79.3078787,1,I 8- 9 bright orbs moving across the night sky each orb/bright light.  ((Starlink satellites)),8,Orb,,,
6/17/2011,14:00:00,45min/1 hr,Calgary (Canada),AB,Canada,51.0447331,-114.0718831,1,"Four spherical orbs seen high in the sky, including 4 tiny white craft fly from one of the orbs.",8,Orb,,,
8/18/2018,00:30:00,45 seconds,Sudbury (Canada),ON,Canada,46.4917317,-80.993029,1,"Glowing sphere appeared in the night sky, hovered for 20 secs, then 7 smaller spheres   ejected and hovered nearby, then they all   d",8,Orb,,,
12/6/2019,06:00:00,<5 minutes,Highway (Canada),AB,Canada,51.0497732,-115.1617306,1,time and date are best guess.,8,Light,,,
10/7/2012,19:30:00,6 minutes,Mississauga (Canada),ON,Canada,43.5890452,-79.6441198,1,Orange lights over mississauga ontario canada,8,Light,,,
8/17/2009,01:30:00,3+ hours,Richmond Hill (Canada),ON,Canada,43.8828401,-79.4402808,1,8 ufo's in formation,8,Light,Witness elects to remain totally anonymous; provides no contact information.  PD,,
8/13/2020,03:56:00,4 seconds,Victoria (Canada),BC,Canada,48.4284207,-123.3656444,1,8 satellite like objects in formation of 4 sets of 2;s spaced equally like Christmas lights on a roof.  ((Starlink satellites?)),8,Formation,,,
10/21/2018,12:21:00,ongoing,Bowmanville (Canada),ON,Canada,43.9126042,-78.688019,1,"Bright blue lights, about 8, some in formation.",8,Flash,,,
1/7/2017,21:50:00,5 minutes,Conception Bay South (Canada),NL,Canada,47.5072864,-52.9964803,1,Cluster of moving stars and orange 'fireballs',8,Fireball,,,
2/27/2009,17:30:00,5 min,Surrey (Canada),BC,Canada,49.1913466,-122.8490125,1,Disc fleet over Surrey BC Canada,8,Disk,Witness does not indicate a date of the sighting.  Witness elects to remain totally anonymous; provides no contact information.  PD,,
8/14/2020,03:00:00,2 minutes,Kaslo (Canada),BC,Canada,49.9142499,-116.9154503,1,"There were 8-10 crafts moving in a straight line east over Kaslo, British Columbia.  ((Starlink satellites?))",8,Circle,,,
12/21/2022,07:55:00,20 minutes,Essex,ON,Canada,42.1726977,-82.818899,1,Driving seeing what looks like comets only motionless. Took video. One was straight up and down. Disappear reappears.,8,Changing,,,
8/27/2017,03:41:00,8-10 minutes,Cochrane (Canada),AB,Canada,51.1917439,-114.4667528,1,Bright ring shaped lights appearing and disappearing coming out of eachother and eventually form the moon for the rest of all night,8,Changing,,,
4/19/2020,21:00:00,30,Beamsville (Canada),ON,Canada,43.1570948,-79.4760133,50,Multiple lights moving quick in different directions   ((Starlink satellites??)),7,Circle,,,
6/22/2012,21:30:00,5-6 minutes,Mount Albert (Canada),ON,Canada,44.136076,-79.3083392,7,7 Orange lights over Mt Albert ON Canada June 22 /2012  9:30 p.m.,7,Circle,,,
1/7/2012,22:00:00,5 minutes,Hamilton (Canada),ON,Canada,43.2557206,-79.8711024,6,"Multiple glowing orbs, flying in formation, spherical objects that would move at unusual formation patterns.",7,Orb,,,
11/16/1999,19:10:00,20 seconds,Lake Simcoe (50 mi east of) (Canada),ON,Canada,44.4635548,-79.3352899,6,From an Airbus 320 cockpit at 31000 ft. we observed a series of 6 to 7 bright burning stars moving in tandem at a relatively slow speed,7,Light,,,
7/13/2013,22:30:00,10 minutes,Toronto (Canada),ON,Canada,43.653226,-79.3831843,5,"Cluster of orange lights, flying close together head north dispersing, about 7-10 lights.",7,Light,Witness elects to remain totally anonymous; provides no contact information.  PD,,
7/21/2012,22:30:00,10 minutes,Belle River (Canada),ON,Canada,42.2932234,-82.7117164,5,7 orange glowing orbs coming out from the land over the pier heading out over the lake,7,Fireball,,,
11/10/2016,20:40:00,5 minutes,La Ronge (Canada),SK,Canada,55.10823,-105.285989,4,We seen 7 lights moving across the northern sky.,7,Unknown,,,
1/15/1981,23:30:00,I don't know,Amherst (Canada),NS,Canada,45.8344395,-64.2123394,4,Seven to nine lights moving slowly around one another in more of a vertical formation,7,Formation,Time and date are approximate.  PD,,
6/26/2012,23:10:00,3 minutes,Winnipeg (Canada),MB,Canada,49.8954221,-97.1385145,4,7 orange orbs traveling silently across the sky - first 2 which disappeared and then followed by 5 more flying in formation.,7,Fireball,,,
7/20/2015,09:15:00,25,Edmonton (Canada),AB,Canada,53.5460983,-113.4937266,4,"Daylight sighting of multiple objects over Edmonton, AB-recorded on two devices by family at park.",7,Circle,,,
1/1/2012,00:15:00,8 min,St. John's (Canada),NL,Canada,47.5556097,-52.7452511,3,http://t.co/wZ1IxNKC,7,Unknown,,,
7/25/2013,23:15:00,Contin.,Vancouver (Canada),BC,Canada,49.2827291,-123.1207375,3,7 or 8 dark shadows with green lights outlining a triangle,7,Triangle,,,
4/10/2023,21:36:00,Repetitive tonight,Wallaceburg,ON,Canada,42.5926445,-82.3882529,3,I looked up into the sky seen lots of planes and stuff flying by then a shape that looked like a v formation almo like birds was bright,7,Triangle,,Unexplained,Possible
6/15/1990,01:00:00,30 seconds,Cambridge (Canada),ON,Canada,43.3616211,-80.3144276,3,Seperate small white lights flew around eachother randlomly then formed a triangle formation and flew towards the moon eclipse.,7,Triangle,Date is approximate.  PD,,
12/25/2019,20:35:00,10 minutes,Windsor (Canada),ON,Canada,42.3149367,-83.0363633,3,7 objects flying for approximately 7- 10 minutes with orange flames trailing then suddenly disappeared,7,Oval,,,
4/14/2013,22:30:00,3-4  minutes,Port Alberni (Canada),BC,Canada,49.2338882,-124.8055494,3,04/14 2013.Port Alberni B.C.7 orange lights 3/4 min.Moving up and off to the right seen by3 people.Clear sky.,7,Light,,,
5/22/2010,22:00:00,2 mins,Ottawa (Canada),ON,Canada,45.4215296,-75.6971931,3,Orange cluster of lights followed by six points of white light - moving in night sky and changing direction.,7,Light,,,
3/15/1970,22:00:00,2-3 minutes,Castlegar (Canada),BC,Canada,49.3237408,-117.6593341,3,"HBCCUFO CANADIAN REPORT:  At least seven, emerged from the light and were flying around the still stationary larger object.",7,Light,We express our gratitude to Brian Vike for submitting this report.  PD,,
11/15/1976,20:00:00,15 mins,Cambridge (Galt) (Canada),ON,Canada,43.360053,-80.306239,3,"Nov. 1976, straight line of 7 or 8 red balls travelling northward, absolutely silent, moving up and down, changing positions",7,Formation,Date is approximate.  We would welcome reports from other witnesses.  PD,,
12/29/2000,19:34:00,6 minutes,Orleans (Canada),ON,Canada,45.4558019,-75.5047333,3,we were coming home from our chalet and we saw a total of seven crafts with bright red lights on them.,7,Circle,"We wonder whether the effect could have been caused by an advertising light, either laser-based, or a typical revolving spotlight.  Just a guess; we do not know what the witnesses observed.  PD",,
4/26/2017,23:00:00,10 minutes,Orangeville (Canada),ON,Canada,43.9199788,-80.0943113,2,Saw object with bright light-then 6 objects with blue & red lights flew out from the main object.  One object followed me home.,7,Unknown,,,
5/26/2019,22:30:00,2 minutes,Campbell River,BC,Canada,50.0331226,-125.2733354,2,Seven objects travelling in formation SW to NE.  ((NUFORC Note:  SpaceLink satellites.  PD)),7,Unknown,SpaceLink satellites.  PD,,
4/25/2008,00:00:00,Unclear,Milton (Canada),ON,Canada,43.5182991,-79.8774042,2,Mind reading.,7,Triangle,,,
6/9/2013,23:00:00,01:30,Brooks (Canada),AB,Canada,50.5657093,-111.8977868,2,"We thought it's a Star but it is a moving Star. spinning, fast, slow, stop, wavy moving look like star",7,Sphere,,,
3/29/2010,20:45:00,10 seconds,Calgary (Canada),AB,Canada,51.0447331,-114.0718831,2,7-8 UFO's and a pterodactyl sighting.,7,Orb,,,
5/13/2018,19:00:00,~20 minutes,Toronto (Canada),ON,Canada,43.653226,-79.3831843,2,"UFO Formation Sighted Over Toronto, Ontario, Canada- Multiple Witnesses.  ((anonymous report))",7,Orb,Witness elects to remain totally anonymous; provides no contact information.  PD,,
10/14/2002,22:30:00,15-20 min.,Oshawa (Canada),ON,Canada,43.8970929,-78.8657912,2,UP to 7 silent orange lights seen hovering for quite a while. ((Vandenberg rocket launch.  PD)),7,Light,,,
4/24/2006,22:15:00,2 hours,The Pas (Canada),MB,Canada,53.8254947,-101.2427087,2,7 lights over period of 2 hours.,7,Light,Witness elects to remain totally anonymous; provides no contact information.  PD,,
10/28/2013,20:30:00,>20 minutes,Pierrefonds (Canada),QC,Canada,45.4688309,-73.8755827,2,7 UFOs.,7,Light,Witness elects to remain totally anonymous; provides no contact information.  PD,,
7/7/2004,01:00:00,5 min,Burlington (Canada),ON,Canada,43.3255196,-79.7990319,2,"I observed a series of bright lights following trajectory of a falling star(close range), and a erratically  moving light(long range )",7,Light,,,
8/23/2020,00:10:00,8 seconds,Portage la prairie,MB,Canada,49.9731127,-98.2924804,2,"Formation of lights, silent and high above atmosphere",7,Light,,,
6/7/2015,00:00:00,5 minutes,Edmonton (Canada),AB,Canada,53.5460983,-113.4937266,2,Group of 7 glowing amber lights flying  in the sky.,7,Light,,,
8/2/1983,23:00:00,5-6 seconds,Marieville (Canada),QC,Canada,45.4326294,-73.1602036,2,first in the evening I spotted a star which seems to turn off the light.  I saw the same thing at north west before I saw the disks.  N,7,Formation,,,
11/1/2007,22:00:00,5 minutes,Hanwell,NB,Canada,45.94548,-66.76314,2,"7 lights in sky, looked like stars in the same shape as the Big Dipper constellation but much closer together.",7,Formation,,Unexplained,Possible
9/18/1999,02:00:00,30 seconds,Kelowna (Canada),BC,Canada,49.8863235,-119.4965917,2,"Formation of seven moving lights, curving quite fast through the night sky",7,Formation,,,
10/13/2013,04:30:00,1 hour,Toronto (Canada),ON,Canada,43.653226,-79.3831843,2,Orange fireballs over Lake Ontario.  Geometric shapes.,7,Fireball,,,
9/1/2010,21:30:00,1,Pine Lake Leisure Center (Canada),AB,Canada,52.1156298,-113.4685659,2,"Small fireballs seen  in Pine Lake, Alberta",7,Fireball,,,
4/3/2007,13:00:00,10 minutes,North Bay (Canada),ON,Canada,46.3091152,-79.4608204,2,7 Golden Discs sighted over Nothern Ontario Lake in April 2007,7,Egg,Witness indicates that the date of the event is approximate.  PD,,
7/30/2017,00:25:00,2-3 seconds,Lethbridge (Canada),AB,Canada,49.6956181,-112.8451067,2,"Seven or nine bright white perfectly round circles of light in a V formation, travelling N to S really fast, with no sound.",7,Chevron,,,
6/1/2014,21:30:00,<2 minutes,Newcastle (Canada),ON,Canada,43.9177731,-78.5874846,1,Seven UFO's seen flying  over Lake Ontario.,7,Sphere,,,
9/30/2012,18:45:00,30 seconds,Oakville (Canada),ON,Canada,43.467517,-79.6876659,1,"Several bright orange globes speeding by approx. 10 degrees off the horizon  near Oakville, Ont",7,Sphere,Witness elects to remain totally anonymous; provides no contact information.  PD,,
10/10/2016,13:30:00,5 seconds,Edmonton (Canada),AB,Canada,53.5460983,-113.4937266,1,"7 objects on video footage recorded with a drone during daytime full HD video available.  ((NUFORC Note:  Not ufos, we suspect?  PD))",7,Sphere,"We have viewed the video, and seriously doubt that the objects, which are very difficult to discern, are UFOs.  They are very small, it appears, and we wonder whether they might be insects or seed pods, flying past the object lens of the video camera.  PD",,
6/30/2000,22:45:00,,St. Thomas (Canada),ON,Canada,42.7777214,-81.1826527,1,I missed the bus when I was going to school so I was riding my bike.  When I was about a block away from my house there was this oval s,7,Oval,,,
8/16/2020,04:37:00,5 minutes,Guelph,ON,Canada,43.5448048,-80.2481666,1,White shipIn the sky with a faded ship in the background very close by above the moon. Refer to the pictures being sent,7,Other,,,
8/16/2020,04:37:00,5 minutes,Guelph (Canada),ON,Canada,43.5448048,-80.2481666,1,White shipIn the sky with a faded ship in the background very close by above the moon. Refer to the pictures being sent,7,Other,,,
9/8/2014,19:30:00,10 minutes,Hamilton (Canada),ON,Canada,43.2557206,-79.8711024,1,Unknown Anomaly Seen In the Night Sky.,7,Other,,,
5/6/2021,23:00:00,2 mins,Toronto (Canada),ON,Canada,43.653226,-79.3831843,1,"7-10 orbs that first looked like stars moving in a line, south towards Lake Ontario.",7,Orb,,,
12/23/2013,23:00:00,5 minutes,Parksville (Canada),BC,Canada,49.3193375,-124.3136412,1,7 colored Orbs in a staggered V shape flying towards military base in Canada.,7,Orb,,,
4/19/2021,20:00:00,one minute,Chilliwack,BC,Canada,49.1579401,-121.9514666,1,"7 objects best described as small suns, round orange objects that appeared and disappeared in succession in and out from same locations",7,Orb,,Unexplained,Possible
11/25/2024,17:35:00,3.5 minutes,Ajax,ON,Canada,43.8508553,-79.0203732,1,7 silent pulsating rotating orange orbs appr 1 mile up spaced 20 - 30 seconds apart,7,Orb,,Unexplained,Possible
2/19/2020,05:50:00,4-5 minutes,Victoria (Canada),BC,Canada,48.4284207,-123.3656444,1,"They looked like stars travelling across the sky in formation. travelling west to east. ((""Spacelink"" satellites??))",7,Light,,,
6/4/2007,23:00:00,7-9 minutes,Cameron (Canada),ON,Canada,56.130366,-106.346771,1,"7 fast lights moving at 700+ mi/ hr, between 60000- 90000 ft",7,Light,,,
5/19/2012,21:10:00,3 minutes,Greenville (Canada),SK,Canada,52.9399159,-106.4508639,1,"Several orange lights flying in a V-pattern, some chasing each other",7,Light,,,
9/14/2020,10:30:00,10 minutes,Kitchener (Canada),ON,Canada,43.4516395,-80.4925337,1,Bright orange lights moving over sky very quickly,7,Light,,,
1/18/2018,03:20:00,15 minutes,Fort Erie (Canada),ON,Canada,42.9017764,-78.9721745,1,"I woke up around 3:15 I was sitting on the toilet and looked out the window, I saw what was a circal of orbs that had 7 small lights ar",7,Formation,,,
10/27/2001,23:15:00,15 min,St-Jean-sur-Richelieu (Canada),QC,Canada,45.305771,-73.2544903,1,It was 7 or 9 aircraft flying in a cricle formation or a big one with spotlight below it,7,Formation,"We suspect that the event may have been the result of an advertising light, but that is conjecture.  PD",,
8/20/1999,22:10:00,Less than 1 min,Saskatoon (Canada),SK,Canada,52.157902,-106.6701577,1,I saw what a first appeared to be a satellite but it was being followed by three lights in a V formation and then another 3 lights in a,7,Formation,,,
1/10/2001,20:00:00,5 minutes,Victoria/Port Angeles (BC/WA) (Canada),BC,Canada,48.4284207,-123.3656444,1,Formation of lights in shape of Great Bear Star System moving west above Port Angelos.,7,Formation,Date is approximate.  PD,,
11/16/1999,19:05:00,10 seconds,Burlington (Canada),ON,Canada,43.3255196,-79.7990319,1,Burlington Ontario 19:05 E.S.T. A line of seven bright green and white lights moving from northwest to southeast,7,Formation,,,
8/27/2008,16:00:00,10 seconds,Niagara Falls (Canada),ON,Canada,43.0895577,-79.0849436,1,Formation of about 7 disc shape objects fly north to South in Niagara Falls North End.,7,Formation,,,
3/15/2004,15:42:00,1-2 minutes,Calgary (Canada),AB,Canada,51.0447331,-114.0718831,1,Spherical White-Silver objects in formation seen over Western Calgary,7,Formation,Witness indicates that date of the event is approximate.  PD,,
5/10/2004,00:45:00,20 seconds,Edmonton (Canada),AB,Canada,53.5460983,-113.4937266,1,"7 objects travelling VERY FAST, changing postions, travelling in formation, and creating no noise.",7,Formation,One of two similar reports about apparently the same event.  We will forward the reports to Canadian investigators.  PD,,
8/25/2019,00:12:00,3 seconds,Edmonton (Canada),AB,Canada,53.5460983,-113.4937266,1,Cluster of star like objects moving with incredible speed,7,Formation,,,
3/11/2002,21:03:00,20 seconds,Whitby (Canada),ON,Canada,43.8975446,-78.9429329,1,Bright craft followed by 6 police aircraft.,7,Fireball,,,
3/4/2020,21:51:00,57 seconds,Lashburn (Canada),SK,Canada,53.1257489,-109.6134782,1,Looking into the night sky when I noticed 7 objects in the sky to the south.,7,Egg,,,
6/25/1978,03:30:00,3 to 5 minutes.3 for me,"sydney, nova scotia",NS,Canada,46.1367899,-60.194224,1,Mother told us after lateshow to check yard for missing bikes,7,Diamond,,Unexplained,Possible
3/8/2019,00:00:00,10 minutes,Newmarket (Canada),ON,Canada,44.059187,-79.461256,1,"6-7 Red/Yellow globes that moved together, but not in a pattern.",7,Circle,,,
8/17/1988,22:15:00,3 minutes,Algonquin Park (Canada),ON,Canada,45.55397,-78.59676,30,6 objects that appeared to break off or seperate from eachother in a swirling clockwise fashion,6,Unknown,,,
8/12/2001,00:00:00,10 MINUTES,Victoria (Canada),BC,Canada,48.4284207,-123.3656444,10,Group of  Many Ufos  taking formations over nighttime sky.,6,Formation,Please see other reports from witnesses to same event.  PD,,
1/10/1971,20:00:00,5 minutes,La Ronge (Canada),SK,Canada,55.10823,-105.285989,8,sighting at anglo rouyn mine in the early 1970' s in norhtern sk.,6,Unknown,,,
8/12/2001,00:15:00,4 Minutes,Victoria (Canada),BC,Canada,48.4284207,-123.3656444,6,6-7 oval shaped objects witnessed traveling over Victoria British Columbia evening sky.,6,Oval,"We spoke at length over the telephone with this witness, and we found him to be an exceptionally credible witness.  We believe that the witnesses were looking into the southern sky, and the Moon was rising in the east, where it usually is seen when rising.  Please see other reports for the same date.  PD",,
7/5/2005,02:00:00,10 Miuntes,St. Catharines (Canada),ON,Canada,43.1593745,-79.2468626,5,Saucer Lands In Canada,6,Disk,Witness elects to remain totally anonymous.  PD,,
4/8/2005,23:00:00,2 mins approx,Oakville (Canada),ON,Canada,43.467517,-79.6876659,4,SIX ORANGE LIGHT MOVING QUICKLY ACROSS A NIGHT SKY,6,Unknown,,,
8/25/2002,23:00:00,4 hours,Belleville (Canada),ON,Canada,44.1627589,-77.3832315,4,we saw and heard something that isn't explainable.,6,Unknown,We suspect a twinkling star.  PD,,
7/6/2002,23:45:00,10 minutes,Middleton (Annapolis Valley) (Canada),NS,Canada,44.9166667,-65.1666667,4,Light Show Over The North Mountain,6,Light,"We will request corroborative reports from the other two witnesses (excluding the dog).  We presume the location of the sighting was Nova Scotia, Canada.  PD",,
12/31/2015,21:40:00,3 minutes,Grande Prairie (Canada),AB,Canada,55.170691,-118.7884808,4,6 objects in single file flying eastward over the South end of the city.,6,Formation,"We have written the source of the report, requesting a copy of the video she alludes to in the report.  PD",,
8/12/2007,01:00:00,30 seconds,New Waterford (Canada),NS,Canada,46.2530549,-60.0918022,4,Orange circles moving around the sky then speeding off out of sight,6,Circle,,,
8/18/2009,00:00:00,02:00,Winnipeg (Moose Lake) (Canada),MB,Canada,53.7001751,-100.3516253,4,multiple flashing lights over other side of lake,6,Cigar,Witness indicates that date is approximate.  PD,,
5/8/2000,21:05:00,10min,Kamloops (Canada),BC,Canada,50.674522,-120.3272674,3,these crafts had a light on each side and a big one in the middle. they came out of a larger triangle then spread out and hovered more,6,Triangle,,,
8/1/1997,13:00:00,several hours,Chapeau (Canada),QC,Canada,45.911178,-77.074679,3,"Sphere-shaped flashing lights around our tent.  When we got out, they were gone.  One did come into the tent and I got to see it very c",6,Other,,,
9/8/2012,22:00:00,30 minutes,Kitchener (Canada),ON,Canada,43.4516395,-80.4925337,3,Six orange/yellow spheres observed over the Chicopee Area of Kitchener,6,Orb,,,
4/16/2020,17:30:00,2 minutes,Vancouver (Canada),BC,Canada,49.2827291,-123.1207375,3,I looked up the sky from my rooftop at the aforementioned time/date and noticed 6-8 orbs like flying objects floating/flying very high,6,Orb,,,
8/23/2004,23:45:00,20 minutes,Pidgeon Lake (Canada),AB,Canada,53.0386329,-114.0953302,3,Did I see crop circles being made?,6,Light,,,
6/30/2002,22:30:00,2hrs,Saint John (Canada),NB,Canada,45.2733153,-66.0633081,3,"it looked like a very fast moving tiny star very high , very high. it did not leave a trail of light it did not land or fade.",6,Light,,,
5/30/2013,21:50:00,2 minutes,Ottawa (Canada),ON,Canada,45.4215296,-75.6971931,3,Saw bright yellow light,6,Light,,,
1/1/2008,01:30:00,25 minutes,Gatineau (Canada),QC,Canada,45.4765446,-75.7012723,3,Bright orange lights above Ottawa / Gatineau,6,Light,,,
8/10/2013,22:45:00,20 minutes,Grand Manan Island (Canada),NB,Canada,44.7063915,-66.8157713,3,Never seen anything like it,6,Fireball,,,
10/31/2022,06:30:00,2 hours,Granite lake,SK,Canada,55.233333,-119.116667,3,"One craft was seen in front of my friends cabin. Craft kept appearing all around us , we watched them for 2 hours",6,Disk,,,
8/26/1998,21:30:00,20 min or more,Amherstview (outside Kingston) (Canada),ON,Canada,44.223329,-76.650818,3,multiple ufo sighting,6,Diamond,,,
5/15/1999,22:30:00,30 seconds,Ft. St John (Canada),BC,Canada,56.252423,-120.846409,3,we were having a smoke on the balcony when I saw 6 V shaped somethings fly silently by at about 600 feet they flew from west to east.,6,Chevron,,,
10/6/2011,03:30:00,3 hrs,Toronto (Canada),ON,Canada,43.653226,-79.3831843,2,MULTIPLE UFO'S VISIBLE FOR MANY HOURS.  ((NUFORC Note:  Possible stars??  PD)),6,Unknown,Possible stars??  PD,,
7/20/2007,23:00:00,15.sec,London (Canada),ON,Canada,42.9849233,-81.2452768,2,July 20/07 Wife and I became believers. What we saw was unbelieveable I just don't know what to say { thay are here},6,Unknown,,,
10/19/2000,20:00:00,1 to 2 seconds,Sherwood Park (Canada),AB,Canada,53.5412755,-113.2957634,2,"6+ beige colored objects, flying in a triangular formation, followed by a wispy column in the night sky over Sherwood Park, Alberta.",6,Unknown,,,
5/30/2018,23:56:00,<4 minutes,London (Canada),ON,Canada,42.9849233,-81.2452768,2,There were clearly unexplained phenomenon at this time and they were not airplanes.,6,Triangle,,,
7/6/2002,21:00:00,5 MIN,Moose Mountain (Canada),NB,Canada,46.616667,-67.616667,2,NEW BRUNSWICK FARMER,6,Triangle,"Date may be approximate, although the witness does not indicate that fact.  PD",,
5/25/2005,22:02:00,15 seconds,Montreal (Canada),QC,Canada,45.5018869,-73.5673919,2,The objects decended from the north heading south. Fisrt apeaered as a cluster of falling stars. All stopped. shapes resembled teardtro,6,Teardrop,,,
10/8/2011,21:00:00,30 seconds,Gananoque (Canada),ON,Canada,44.330618,-76.161864,2,"6 large, fast moving and silent orange spheres travelling in formation.",6,Sphere,,,
7/10/1991,00:00:00,15min,Victoria (Canada),BC,Canada,48.4284207,-123.3656444,2,Then I defiantly saw a melon sized ball of white light pass us traveling faster than I thought possible.,6,Sphere,,,
9/24/2016,17:55:00,9 minutes,Toronto (Canada),ON,Canada,43.653226,-79.3831843,2,"Blurry, white oval craft and trailing red lights over Rogers (SkyDome) Centre, Toronto",6,Oval,,,
8/11/2017,22:30:00,2 hours,Edmonton (Canada),AB,Canada,53.5460983,-113.4937266,2,"15 minutes out of Edmonton, Alberta.",6,Other,,,
4/4/2014,21:40:00,~2 minutes,Calgary (Canada),AB,Canada,51.0447331,-114.0718831,2,"2 and shortly after 4 semi-reflective 'orbs',  swept the sky from east to west.  They were white/grey.",6,Other,,,
6/20/1996,15:30:00,30 minutes plus,Surrey (Canada),BC,Canada,49.1913466,-122.8490125,2,Strange Planes That Changed Shape And Appear To Be Interdimensional,6,Other,,,
11/21/2011,02:34:00,15 Minutes,Penetanguishene (Canada),ON,Canada,44.7687678,-79.933681,2,multiple red and white orbs,6,Orb,,,
9/21/2009,10:22:00,5-7 mins,Scarborough (Canada),ON,Canada,43.7764258,-79.2317521,2,White orb travelling along  side a thick chemtrail,6,Orb,,,
7/24/2004,23:07:00,45 minutes,Sanikiluaq (Canada),NT,Canada,56.5407678,-79.22321,2,Unidentified flying lights,6,Light,,,
7/26/2010,23:00:00,2 Nights,Sault Ste. Marie (Canada),ON,Canada,46.5136494,-84.3357526,2,Multiple white lights and a Whitel light with Red shining through,6,Light,Witness elects to remain totally anonymous; provides no contact information.  PD,,
8/1/2003,22:30:00,approx: 20 mins,Kelowna (Canada),BC,Canada,49.8863235,-119.4965917,2,HBCCUFO CANADIAN REPORT:  Zig Zagging white lights.,6,Light,,,
7/10/2013,22:00:00,15 minutes,London (Canada),ON,Canada,42.9849233,-81.2452768,2,6 orange lights seen by 2 people,6,Light,Witness elects to remain totally anonymous; provides no contact information.  PD,,
7/10/2013,22:00:00,15 minutes,London (Canada),ON,Canada,42.9849233,-81.2452768,2,6 orange bright lights,6,Light,,,
8/15/1987,22:00:00,20 minutes,Saskatoon (Canada),SK,Canada,52.157902,-106.6701577,2,"I used to sit on our deck,on summer evenings and look at the stars. This was on a farm south of Saskatoon. Infrequently, these lights w",6,Light,,,
4/7/2020,21:22:00,2 minutes,Nelson (Canada),BC,Canada,49.4928119,-117.2948343,2,"2 dim lights travelling in a line across the sky followed by 3 more in a triangle formation  ((""Starlink"" satellites??))",6,Light,,,
4/16/2020,21:15:00,25 minutes,Sarnia (Canada),ON,Canada,42.974536,-82.4065901,2,Six lights a minute apart from W to E then disappearing into a specific area of the sky.  ((Starlink satellites?)),6,Light,,,
10/8/1974,21:10:00,One minute.,North Vancouver,BC,Canada,49.3290153,-123.0818166,2,"Me and Bruce were leaving night school, looking up we saw cluster of 5-6 'starlike' lights slowly ""waltzing"" about. Then, gone.",6,Light,,Unexplained,Possible
4/24/2004,20:30:00,approx: 20 minutes,Acton (Canada),ON,Canada,43.6339088,-80.041322,2,HBCCUFO CANADIAN REPORT:  Formation of lights.,6,Light,,,
10/19/2018,17:45:00,1 minute,Sherwood Park (Canada),AB,Canada,53.5412755,-113.2957634,2,Crazy.  Lights streak across the sky.,6,Light,,,
6/25/2004,01:00:00,15seconds,Burlington (Canada),ON,Canada,43.3255196,-79.7990319,2,"I filmed a star-like object moving very rapidly, in an extremely erratic pattern that included starts, stops and lightning turns.",6,Light,,,
9/28/2001,23:55:00,1 min,Fredericton (Canada),NB,Canada,45.9635895,-66.6431151,2,6 lights moving in a steady pace,6,Formation,,,
4/15/2006,22:10:00,4 Sec.,Couburg (Canada),ON,Canada,43.9593373,-78.1677363,2,There were 6 round craft that had an orange glow that flew from east to west at about mock 2 or 3 with no sound. They were flying in a,6,Formation,,,
6/15/1987,01:00:00,2-3 hours,"Vancouver Island (over, viewed by me and others) (Canada)",BC,Canada,49.6506376,-125.4493906,2,Myself  ((deleted))along with a friend named ((del)) watched formations of triangle and globs doing what appeared to us e,6,Formation,Date is very approximate.  We have assigned an arbitrary date in June 1987 so that the report sorts to that year.  PD,,
7/14/2012,22:45:00,5 minutes,Oakville (Canada),ON,Canada,43.467517,-79.6876659,2,"6-7 orange fireballs seen over Oakville, ontario",6,Fireball,Witness elects to remain totally anonymous; provides no contact information.  PD,,
6/7/2014,12:05:00,1 minute,Esterhazy (Canada),SK,Canada,50.6568523,-102.0757792,2,Fireballs  floating in the sky.,6,Fireball,Witness elects to remain totally anonymous; provides no contact information.  PD,,
8/28/2008,00:15:00,1 hour,Moncton (Canada),NB,Canada,46.0878165,-64.7782313,2,Odd fireball seen in Moncton night skies.,6,Fireball,,,
4/20/2011,23:15:00,more than ten minutes,Chilliwack (Canada),BC,Canada,49.1579401,-121.9514666,2,"6 UFO's hovering erratically over stars in Chilliwack, BC.",6,Disk,,,
11/14/2019,20:45:00,~1 minute,Port Colborne (Canada),ON,Canada,42.8865204,-79.2508558,2,6 slow moving orange glowing lights moving west to east through the sky at low altitude.  Flying objects made no sound and had no defin,6,Circle,,,
11/10/2012,13:00:00,1 minute,Mississauga (Canada),ON,Canada,43.5890452,-79.6441198,2,6 orange circle lights came right above our heads at about 1 and lasted for a minute without any sound and slowly dissapeared,6,Circle,Witness elects to remain totally anonymous; provides no contact information.  PD,,
9/25/2021,12:00:00,1.5 hours,Hecla Island (Canada),MB,Canada,51.1065756,-96.7050389,2,"Circular flying objects at Winnipeg lake, between Hecla Island and Black Island",6,Circle,,,
11/30/2000,09:00:00,3 minuets,Oakville (Canada),ON,Canada,43.467517,-79.6876659,2,we saw 6 Chevron shaped craft fly behind a hill. When we went to see we saw 8 more behind the hill. They seemed to be damaged. we saw 4,6,Chevron,,,
6/26/1995,16:00:00,1/2 hour,Surrey (Canada),BC,Canada,49.1913466,-122.8490125,2,Morphing? Interdimensional Craft - Daylight Sighting,6,Changing,,,
5/6/2024,13:16:00,The last 3 years,Good Hope Lake,BC,Canada,59.281944,-129.302778,2,"One was hovering on mt pendelton at dusk , has a hook below it , several responded to our strobe light",6,Changing,,Unexplained,Possible
3/21/2020,19:50:00,5 minutes,Enderby (Canada),BC,Canada,50.5508499,-119.1396705,1,"Approx. At 7:50 pm on March 21, 2020, I noticed two yellow lights in the sky overlooking the valley facing north from Saltwell Road, En",6,Unknown,,,
1/13/2025,02:15:00,~5 minutes,Calgary,AB,Canada,51.0557386,-114.0516769,1,2 identical clusters of 3 star-like orbs in a perfect vertical formation,6,Star,,Unexplained,Possible
9/2/2015,21:39:00,10 minutes,Mayerthorpe (Canada),AB,Canada,53.9548278,-115.1422651,1,"On 2nd of  Sept. 2015  6 lights in the western sky at sunset .. they were in  a staggered formation. Direction North to South.

 Site",6,Sphere,,,
7/24/2016,01:30:00,5 minutes,Canada (west coast; Alaskan cruise),BC,Canada,49.282645,-123.1205718,1,Yellow orbs seen while on an Alaskan cruise.,6,Oval,,,
9/7/2012,01:00:00,7 hours,Blain Lake (Canada),SK,Canada,52.8297257,-106.8801788,1,6 ufo's...thought i was a gonner for sure.,6,Other,,,
6/17/2016,22:40:00,5 minutes,Sarnia (Canada),ON,Canada,42.974536,-82.4065901,1,((HOAX??))  Star orbs with large red auras.  ((anonymous report)),6,Orb,Witness elects to remain totally anonymous; provides no contact information.  PD,,
7/22/2007,03:00:00,45 minutes,Beaver Dam (Canada),NB,Canada,45.798539,-66.6976229,1,"Multiple ""Power Ups"" in small area of sky",6,Light,,,
7/24/2006,01:30:00,+1.5hrs,North Bay (Canada),ON,Canada,46.3091152,-79.4608204,1,"On this night, I went outside to have a cigarette before I went to bed. The sky was completely clear and you could see the entire sky w",6,Light,,,
8/17/2014,00:00:00,5 minutes,St. Catharines (Canada),ON,Canada,43.1593745,-79.2468626,1,6 Bright lights in the sky moving about and flickering.,6,Light,Witness elects to remain totally anonymous; provides no contact information.  PD,,
7/21/2020,12:30:00,30 seconds,Lethbridge (Canada),AB,Canada,49.6956181,-112.8451067,1,6 dark triangle shapes in formation,6,Formation,,,
5/10/2004,00:37:00,20 seconds,Edmonton (Canada),AB,Canada,53.5460983,-113.4937266,1,"Silent, fast, low traveling lights fly over Edmonton Sunday night",6,Formation,One of two similar reports about apparently the same event.  We will forward the reports to Canadian investigators.  PD,,
5/18/2022,20:58:00,About a 1 minute video,New Tecumseth,ON,Canada,44.1539514,-79.8691544,1,"Driving to my cousins house, me and my brother saw these balls of fire it looked like in the sky. I have video evidence",6,Fireball,,Chinese Lantern,Possible
1/20/2012,13:00:00,20 seconds,London (Canada),ON,Canada,42.9849233,-81.2452768,1,"Aircraft over London, On - no contrails seen",6,Cross,Witness elects to remain totally anonymous; provides no contact information.  PD,,
4/22/2020,22:30:00,1 hour,Ashton (Canada),ON,Canada,45.1573149,-76.031688,1,"6 objects seen in sky flying in back and forth and circling each other at 10:30pm April 22, 2020 in Ashton, Ottawa Ontario.",6,Circle,,,
8/15/2021,18:01:00,20 seconds,Halifax,NS,Canada,44.8857087,-63.1005273,1,I have almost daily sightings.,6,Circle,,,
7/24/2022,21:13:00,40 minutes,Toronto,ON,Canada,43.6669385,-79.2944835,1,"Witnessed approximately 5 bright morphing orbs and a silvery object also morphing, it beaming a light over the water and disappeared",6,Changing,,Aircraft,Possible
12/19/2024,17:40:00,1 hr and 20 minutes.,Ottawa,ON,Canada,45.4406019,-75.6958615,1,"Low flying, hovering silent drones and commercial plane looking craft the size of an escalade with drone maneuverability.",6,Changing,,Drone,Possible
8/23/2000,11:34:00,30 seconds,Saskatoon (Canada),SK,Canada,52.157902,-106.6701577,3000,"flashes of light, quickly dissapeared afterwards",5,Flash,Witness elects to remain semi-anonymous.  PD,,
5/20/1979,01:00:00,45 seconds,Cold Lake (Canada),AB,Canada,54.464249,-110.1731779,18,v formation of lights in outer space turning 90 degrees,5,Formation,Witness indicates that the date of the event is approximate.  PD,,
8/19/2006,22:00:00,3 hours,Greenville (Canada),BC,Canada,55.032217,-129.58121,12,4 nights in  row...what do they want?,5,Disk,,,
8/3/2014,23:30:00,~20 minutes,Kearney (near) (Canada),ON,Canada,45.556352,-79.2235611,6,5 red and white flying objects and green flashes coming from the forest below them in Northern Ontario,5,Circle,,,
10/3/2003,20:30:00,15 minutes,"Ootischenia, Castlegar (Canada)",BC,Canada,49.3042299,-117.632072,5,HBCCUFO CANADIAN REPORT:  there were five of these objects in the sky at one time flying in various directions,5,Light,,,
11/10/2012,21:00:00,5 minutes,Rimbey,AB,Canada,52.6396816,-114.2358931,5,One Large craft 3plus more circling around entering and disappearing,5,Disk,,,
8/20/2019,16:39:00,,Calgary (Canada),AB,Canada,51.0447331,-114.0718831,5,5 lights flashing in a row equally spaced apart.  Went on for at least 15 minutes.,5,Circle,,,
8/12/1981,14:00:00,1min30 sec,Medicine Hat (Canada),AB,Canada,50.0290218,-110.7031976,4,"5 bright lights seen in medicine hat, alta. in the mid afternoon in 1980-1981",5,Triangle,Witness indicates that the date of the incident is approximate.  PD,,
2/11/2014,20:30:00,15 minutes,Victoria (Canada),BC,Canada,48.4284207,-123.3656444,4,Tonight I saw two distinct sightings. The first one was a very bright red light. The red was basically pure red. Half an hour later I s,5,Sphere,,,
9/21/2024,22:55:00,About 7 to 10 minutes,Parry Sound,ON,Canada,45.2967299,-79.97754,4,We saw lights from stationary positions to instant moving at extreme speed,5,Light,,Unexplained,Possible
6/1/2012,02:30:00,over and hour,Timmins (Canada),ON,Canada,48.4758208,-81.3304953,4,"Pulsing white lights, 5 of them swerving in the sky.",5,Light,,,
1/15/2016,20:00:00,5 minutes,Sherwood Park (Canada),AB,Canada,53.5412755,-113.2957634,4,"Red lights in sky, flying in formation.",5,Formation,,,
4/9/2005,22:00:00,5 mins,Yukon City (Canada),YT,Canada,64.0639058,-139.4332999,4,BIG BALLS OF FIRE IN NIGHT SKY,5,Fireball,,,
12/24/2003,00:00:00,,Elliot Lake (Canada),ON,Canada,46.386179,-82.650941,4,"Think  i heard noises, fast moving, Green lights then glowed red,unusually shaped, disappeared after a bit.",5,Changing,Witness elects to remain totally anonymous.  PD,,
7/29/2007,20:37:00,10 minutes,Orillia (Canada),ON,Canada,44.6082465,-79.4196783,3,Photographed a few strange objects then watched one rise from the ground and shoot off to the left! (multiple Photo's),5,Unknown,Witness elects to remain totally anonymous;  provides no contact information.  PD,,
8/2/2013,22:00:00,4 minutes,Barrie (Canada),ON,Canada,44.3893556,-79.6903316,3,5 bright red/orange (amber) lights hovering in the sky,5,Sphere,,,
12/22/2019,20:00:00,10 minutes,402 hwy and 401 (Canada),ON,Canada,42.9078308,-81.2299508,3,"While driving from Toronto to Windsor on the 401 we noticed 5 disks in a linear pattern, stationary stretched from the horizon to mid s",5,Sphere,,,
1/30/2014,21:00:00,5 minutes,New Maryland (Canada),NB,Canada,45.8909953,-66.6848239,3,"My girlfriend an I returned home from dinner to see 5 vibrant orange/red objects moving alarmingly fast from east to west, with no soun",5,Oval,Witness elects to remain totally anonymous; provides no contact information.  PD,,
10/14/2002,18:05:00,10 minutes,Windsor (Canada),ON,Canada,42.3149367,-83.0363633,3,5 slow moving objects near detroit/windsor,5,Other,"Witness was kind enough to forward several photos to NUFORC.  The objects look like contrails in a clear sky, illuminated by the setting Sun.  We have little doubt but what that is the explanation for the objects.  PD",,
11/15/1969,06:00:00,7 hours,Vancouver (Canada),BC,Canada,49.2827291,-123.1207375,3,"translucent 12 inch balls of light that are sentient beings with a mission on our little sphere.

 500 Lights On Object0: Yes",5,Orb,Witness indicates that the date of the incident is approximate.  PD,,
12/25/2012,20:30:00,10 seconds,Carleton Place (Canada),ON,Canada,45.140603,-76.146546,3,Multiple orange circles Carleton Place ON December 25.,5,Orb,Witness elects to remain totally anonymous; provides no contact information.  PD,,
11/2/2022,19:05:00,3-5 minutes,Musgrave Landing,BC,Canada,48.751919,-123.545025,3,"A few lights hovering in a triangle formation and then they split up, moved irratatically and moved impossibly fast.",5,Orb,,Unexplained,Possible
8/8/2004,23:30:00,3-10 min.,Carberry (south of) (Canada),MB,Canada,49.8712248,-99.3608438,3,Many moving constallations  flash and disappear into the dark rift of milky way,5,Light,"We are not aware of the UFO ""flap"" alludeded to, but will investigate the possible occurrence of several sightings in that province.  Chris Rutkowski, Canadian investigator, may know of it.  PD",,
7/28/2003,23:00:00,2 hours,Woodstock (Canada),NB,Canada,46.150266,-67.6033952,3,lights moving north,5,Light,We suspect the witnesses are observing satellites.  PD,,
9/25/1997,23:00:00,10-15 min,Toronto (Canada),ON,Canada,43.653226,-79.3831843,3,reddish orange lights popping in and out of sky randomly all in different spots,5,Light,Date is approximate.  PD,,
4/24/2014,21:10:00,1:10 minutes,Whitby (Canada),ON,Canada,43.8975446,-78.9429329,3,5 Bright Orange Lights in the Sky - In an Octagon Formation,5,Formation,,,
6/15/1984,23:00:00,4 hours,Calgary (Canada),AB,Canada,51.0447331,-114.0718831,3,Its been along time however i believe it was in the summer of 1984 or 1985. At around 2300 hours I was working with my partner patrolin,5,Disk,Date is approximate.  We have assigned an arbitrary date so that the report sorts to June 1984.  PD,,
8/1/2006,22:00:00,7 hrs.,Wheatly (Canada),ON,Canada,42.095061,-82.4629497,3,"Lake Erie  UFO""S",5,Disk,,,
1/3/2004,21:00:00,Still Going,Thunder Bay (Canada),ON,Canada,48.3808951,-89.2476823,3,"Spotted 5 or more UFOs in Thunder Bay, ON.  Now, apparently up to 12 or more.",5,Disk,"The witness does not indicate a date of the sighting, although we believe a date of January 03, 2004, is implied.  Witness elects to remain totally anonymous.  We do not know if this is a serious report.  PD",,
10/1/2007,01:00:00,1min,Barrie (Canada),ON,Canada,44.3893556,-79.6903316,3,the ufos went over my house  500 Lights On Object0: Yes,5,Circle,,,
7/14/2001,23:30:00,10 sec,Mississauga (Toronto) (Canada),ON,Canada,43.653226,-79.3831843,3,5 Chevron shaped objects flying in V pattern,5,Chevron,,,
4/23/2014,22:15:00,10-15 seconds,Mansfield (Quebec) (Canada),QC,Canada,45.8525303,-76.7329996,2,We were in hot tub looking into sky and at 2 different times about 15 minutes apart they went by in sky no noise and moving side to sid,5,Unknown,,,
8/28/2006,22:00:00,60 Seconds,Bobcaygeon (Canada),ON,Canada,44.5404573,-78.5463692,2,"5 Flashing lights, in tandem.",5,Unknown,,,
8/12/2008,02:00:00,1 hour,Regina (Canada),SK,Canada,50.4452112,-104.6188944,2,The Mother ship and her babies....,5,Unknown,Source of report indicates that the date of the incident is approximate.  PD,,
2/3/2023,09:00:00,3 mins +,Saint-Jérôme,QC,Canada,45.7700546,-73.9729428,2,"4 small (ufos) visible for 1 second,,,,,1 big one very slowly",5,Triangle,,Unexplained,Possible
12/18/2019,23:30:00,45 minutes,Cochrane (Canada),AB,Canada,51.1917439,-114.4667528,2,My friend and I saw many black triangles with flashing lights flying around us,5,Triangle,,,
10/14/1998,06:45:00,1hour,Winnipeg (Canada),MB,Canada,49.8954221,-97.1385145,2,"at 6:45am when l was heading off to work  my mom and l saw  5 large white spheres ,they were moving  slowly in a circular  pattern",5,Sphere,"Date may be approximate, although the witness does not indicate that fact.  We believe that circling advertising lights would have to be ruled out, before we could conclude that the witness had observed genuine UFO's.  PD",,
7/12/2014,23:00:00,10,Gatineau (Canada),QC,Canada,45.4765446,-75.7012723,2,"Exactly one year ago we saw the same phenomena....on July 13, 2013 we saw a sphere orange traveling at great speeds from south to east",5,Sphere,,,
9/15/1985,03:00:00,1 minute,Guelph (Canada),ON,Canada,43.5448048,-80.2481666,2,"guelph, canada, 1985: five unusual objects in the sky.",5,Oval,Time and date are approximate.  PD,,
9/28/2014,21:00:00,45 minutes,Nanaimo (Canada),BC,Canada,49.1658836,-123.9400647,2,"Large circular/ovoid object, w. 4 others, bright flashing lights, in night sky over Nanaimo,BC, Canada",5,Oval,,,
11/2/2000,16:30:00,45 sec,Cardinal (Canada),ON,Canada,44.7890482,-75.383218,2,"It was getting cold and I had changed our heating system from Gas to Wood , just installing a new wood stove Selkirk .

as the pieces",5,Oval,"Case will be forewarded to Brian Vike, Director of HBCCUFO, for follow-up investigation.  Date is approximate.  PD",,
6/7/2005,13:00:00,30 min,Peterborough (Canada),ON,Canada,44.3047061,-78.3199606,2,Small white dots in sky.,5,Oval,Witness elects to remain totally anonymous; provides no contact information.  PD,,
